[{"number":16,"name":"16 - BEAUREGARD","address":"Avenue Fontaine Argent angle rue Beauregard","latitude":47.245026,"longitude":6.032438},{"number":30,"name":"30 - XAVIER MARMIER","address":"18 rue Xavier Marmier","latitude":47.241255701340755,"longitude":6.006690275635534},{"number":2,"name":"02 - SQUARE BOUCHOT","address":"Rue Battant (au niveau du Square Bouchot)","latitude":47.242989691774426,"longitude":6.022069520897031},{"number":26,"name":"26 - BERSOT","address":"Place de la 7ème Brigade blindée","latitude":47.238861017468444,"longitude":6.029520493529113},{"number":14,"name":"14 - JACOBINS","address":"Place Jacobins","latitude":47.234141824485384,"longitude":6.033465399526011},{"number":22,"name":"22 - LIBERTE","address":"Place de la Liberté","latitude":47.247417297125864,"longitude":6.028643227134329},{"number":23,"name":"23 - RIVOTTE","address":"Rue Charles NODIER Sortie du tunnel, direction Morne","latitude":47.232098051962886,"longitude":6.035135506401409},{"number":27,"name":"27 - MAIRIE","address":"Rue Megevand","latitude":47.23687885054159,"longitude":6.022230358397715},{"number":24,"name":"24 - MEDIATHEQUE","address":"Rue de la République angle rue d'Alsace face à la médiathèque","latitude":47.24010992877723,"longitude":6.027358757731064},{"number":4,"name":"04 - FLORE","address":"7 rue de la Cassotte","latitude":47.24572,"longitude":6.028156},{"number":1,"name":"01 - GARE VIOTTE (CB)","address":"Parc des Glacis - Entrée Avenue de la Paix","latitude":47.246435,"longitude":6.022439},{"number":17,"name":"17 - PREFECTURE","address":"Avenue de la Gare d'Eau face commissariat","latitude":47.232972634791274,"longitude":6.020189619260524},{"number":21,"name":"21 - DEPORTES","address":"Avenue Fontaine Argent angle Bld Diderot","latitude":47.247867,"longitude":6.036483},{"number":10,"name":"10 - 8 SEPTEMBRE (CB)","address":"Place du 8 Septembre","latitude":47.23775305781035,"longitude":6.024181412656592},{"number":28,"name":"28 - LECLERC","address":"Place Leclerc","latitude":47.242266739833966,"longitude":6.014812815272848},{"number":15,"name":"15 - TASSIGNY","address":"Place De Lattre de Tassigny, 25000 Besancon","latitude":47.23122,"longitude":6.026578},{"number":9,"name":"09 - LA CITY (CB)","address":"Avenue Louise Michel angle rue Plançon","latitude":47.23549883612933,"longitude":6.015246632284997},{"number":13,"name":"13 - VICTOR HUGO","address":"Place Victor Hugo (au niveau de la porte Noire, entrée de la Citadelle)","latitude":47.234686721360035,"longitude":6.029668698192095},{"number":3,"name":"03 - MADELEINE (CB)","address":"Rue de la Madeleine- Face à la rue de l'Ecole","latitude":47.239837298410414,"longitude":6.019829222956177},{"number":6,"name":"06 - OFFICE DE TOURISME (CB)","address":"Avenue Edouard Droz","latitude":47.242516482485755,"longitude":6.029825732914758},{"number":5,"name":"05 - ISEMBART","address":"Quai de Strasbourg (Pont Denfert Rochereau)","latitude":47.24274259048728,"longitude":6.025292335375532},{"number":7,"name":"07 - GARE MOUILLERE","address":"Parvis de la Gare","latitude":47.240378590402976,"longitude":6.033592242591653},{"number":29,"name":"29 - BELFORT","address":"Rue de Belfort angle rue Suard","latitude":47.248863,"longitude":6.030724},{"number":8,"name":"08 - MARULAZ","address":"Place Marulaz","latitude":47.23962163528984,"longitude":6.01727555596672},{"number":18,"name":"18 - SAINT-JACQUES (CB)","address":"Place Saint Jacques (en face de l'hopital)","latitude":47.23570567397708,"longitude":6.021461994271495},{"number":19,"name":"19 - BEAUX-ARTS","address":"Angle de la rue Gustave Courbet et rue Pierre Joseph Proudhon","latitude":47.24087,"longitude":6.0253},{"number":12,"name":"12 - GRANVELLE (CB)","address":"Place Granvelle","latitude":47.23532713371164,"longitude":6.025415743969972},{"number":25,"name":"25 - MORAND","address":"2 rue Morand","latitude":47.237975621583274,"longitude":6.026233043233463},{"number":20,"name":"20 - REVOLUTION","address":"Place de la Révolution rue Luc Breton","latitude":47.239472732151135,"longitude":6.023347888923649},{"number":11,"name":"11 - JEAN CORNET","address":"Place Jean Cornet","latitude":47.23658127083706,"longitude":6.028437571298568}]