[{"number":9087,"name":"9087-MAZARGUES","address":"MAZARGUES - ROND POINT DE MAZARGUES (OBELISQUE)","latitude":43.250903869637334,"longitude":5.403244616491982},{"number":8149,"name":"8149-391 MICHELET","address":"391 MICHELET - 391 BOULEVARD MICHELET","latitude":43.25402727813068,"longitude":5.401873594694653},{"number":9207,"name":"9207- TEISSEIRE - ROUBAUD","address":"TEISSEIRE ROUBAUD - ANGLE RUE RAYMOND TEISSEIRE ET RUE MAGUY ROUBAUD","latitude":43.27252367086013,"longitude":5.399686062414487},{"number":6254,"name":"6254-ROME - BERLIOZ - ITALIE","address":"ROME ITALIE BERLIOZ - FACE AU 10 RUE BERLIOZ","latitude":43.28892000857008,"longitude":5.383105742132375},{"number":1343,"name":"1343 - FLAMMARION GROBET","address":"FLAMMARION GROBET - BOULEVARD CAMILLE FLAMMARION ANGLE RUE LOUIS GROBET","latitude":43.3046818705083,"longitude":5.3901483781149},{"number":6113,"name":"6113-LODI VILLAGE","address":"LODI VILLAGE - FACE AU 89 RUE DE LODI","latitude":43.2886166717576,"longitude":5.387779642713593},{"number":1130,"name":"1130- NATIONAL LONGCHAMP","address":"NATIONAL LONGCHAMP - 1 BD NATIONAL ANGLE LONGCHAMP","latitude":43.30123319837804,"longitude":5.387773261785004},{"number":1301,"name":"1301- ST CHARLES MARSEILLAISES","address":"SAINT CHARLES MARSEILLAISES - PLACE DES MARSEILLAISES ANGLE RUE PHILIPPE DE GIRARD","latitude":43.301510278747365,"longitude":5.379895702048497},{"number":7142,"name":"7142-CORNICHE RAPATRIES","address":"CORNICHE RAPATRIES - CORNICHE J.F. KENNEDY FACE AU MEMORIAL DES RAPATRIES EN DIRECTION DU VIEUX PORT","latitude":43.270172262619184,"longitude":5.365239906973955},{"number":6217,"name":"6217-ROSTAND - PREFECTURE","address":"ROSTAND PREFECTURE - 6 RUE EDMOND ROSTAND ANGLE RUE SYLVABELLE","latitude":43.2896832563691,"longitude":5.379650236474981},{"number":8147,"name":"8147 - MICHELET HUVEAUNE","address":"MICHELET HUVEAUNE - ANGLE BOULEVARD MICHELET ET RUE JACQUES PICON","latitude":43.26796549967643,"longitude":5.393967016838425},{"number":3320,"name":"3320 - BELLE DE MAI CADENAT","address":"BELLE DE MAI CADENAT - PLACE BERNARD CADENAT","latitude":43.31181964585524,"longitude":5.387375678428276},{"number":2184,"name":"2184-REPUBLIQUE-CATHALA","address":"REPUBLIQUE CATHALA - RUE DE LA REPUBLIQUE ANGLE RUE JEAN MARC CATHALA","latitude":43.30056201196652,"longitude":5.370488134608402},{"number":2279,"name":"02279 - DOCKS LES TERRASSES DU PORT","address":"SOUS A55 AU BOUT DES DOCKS FACE AU 22 QUAI DU LAZARET 13002","latitude":43.308731,"longitude":5.36651},{"number":1344,"name":"1344 - FLAMMARION NATIONAL","address":"FLAMMARION NATIONAL - BOULEVARD CAMILLE FLAMMARION ANGLE BOULEVARD NATIONAL","latitude":43.30353946127941,"longitude":5.386356771062651},{"number":2272,"name":"2272- JOLIETTE-DUNKERQUE","address":"JOLIETTE DUNKERQUE - PLACE DE LA JOLIETTE ANGLE BOULEVARD DUNKERQUE","latitude":43.3051302607768,"longitude":5.36697414687028},{"number":8068,"name":"8068-PRADO BORELY","address":"PRADO BORELY - 579 AVENUE DU PRADO","latitude":43.262455920908494,"longitude":5.375795816171145},{"number":4238,"name":"4238-LIBERATION-CHAPE-ESPERANDIEU","address":"LIBERATION CHAPE ESPERANDIEU - BOULAVARD LIBERATION ANGLE RUE CHAPE","latitude":43.302008143688155,"longitude":5.394684906357751},{"number":1003,"name":"1003-PLACE AUX HUILES","address":"PLACE AUX HUILES - COURS ESTIENNE D'ORVES ANGLE RUE SAINT SAENS","latitude":43.29312239728256,"longitude":5.371867606488009},{"number":1216,"name":"1216-SAINTE - LULLI","address":"SAINTE LULLI - 17 RUE SAINTE","latitude":43.292666663006464,"longitude":5.375905974276691},{"number":6177,"name":"6177-BAILLE FRIEDLAND","address":"BAILLE FRIEDLAND - BOULEVARD BAILLE ANGLE RUE DE FRIEDLAND","latitude":43.2865946021474,"longitude":5.38678589001619},{"number":8307,"name":"8307-PRADO MICHELET","address":"Parvis entrée parc Chanot","latitude":43.2722414899425,"longitude":5.39166970262158},{"number":7215,"name":"7215-ENDOUME - CORDERIE","address":"ENDOUME CORDERIE - 41 RUE D'ENDOUME","latitude":43.28923675488644,"longitude":5.366479730277853},{"number":2179,"name":"2179-QUAI DU PORT","address":"QUAI DU PORT - 148 QUAI DU PORT","latitude":43.295414354264665,"longitude":5.36552550703358},{"number":5103,"name":"5103-RUE GEORGES","address":"RUE GEORGES - 28 RUE GEORGES","latitude":43.29748821146523,"longitude":5.397731278573822},{"number":1230,"name":"1230-ROOSEVELT - REFORMES","address":"ROOSEVELT REFORMES - 7 COURS FRANKLIN ROOSEVELT","latitude":43.29908095432929,"longitude":5.38661231791721},{"number":1345,"name":"1345 - SAINT CHARLES LECLERC ZATTARA","address":"SAINT CHARLES LECLERC ZATTARA - AVENUE DU GENERAL LECLERC ANGLE RUE ANTOINE ZATTARA","latitude":43.30380276644441,"longitude":5.377690136115547},{"number":8257,"name":"8257-RABATAU - TEISSEIRE","address":"RABATAU TEISSEIRE - ANGLE BOULEVARD RABATAU ET FACE AU 68 RUE RAYMOND TEISSEIRE","latitude":43.27524269246836,"longitude":5.396409806138883},{"number":9085,"name":"9085-SCHLOESING TEISSERE","address":"SCHLOESSING TEISSERE - ANGLE BOULEVARD SCHLOESSING ET RUE RAYMOND TEISSERE","latitude":43.2693522531282,"longitude":5.402740962235228},{"number":6100,"name":"6100-PAUL PEYTRAL","address":"PAUL PEYTRAL - 35 BOULEVARD PAUL PEYTRAL","latitude":43.289985879061746,"longitude":5.379124641857261},{"number":1346,"name":"1346- REPUBLIQUE COUTELLERIE","address":"REPUBLIQUE COUTELLERIE - RUE DE LA REPUBLIQUE ANGLE RUE DE LA COUTELLERIE","latitude":43.296824934966864,"longitude":5.373860886192452},{"number":7349,"name":"7349 - LA CRIEE","address":"28 Quai de Rive Neuve - angle rue Plan Fourmiguier","latitude":43.292601,"longitude":5.368569},{"number":6023,"name":"6023- CASTELLANE","address":"CASTELLANE - ROND POINT CASTELLANE DEVANT LE CAFE DE PARIS","latitude":43.286046362122946,"longitude":5.383285575102103},{"number":1297,"name":"1297- ST FÉRRÉOL DAVSO","address":"ST FERREOL DAVSO - RUE FRANCIS DAVSO ANGLE RUE SAINT FERREOL","latitude":43.293485736186526,"longitude":5.378423799723321},{"number":9074,"name":"9074-MICHELET LUCE","address":"MICHELET LUCE - ANGLE BOULEVARD MICHELET ET BOULEVARD LUCE","latitude":43.25850879475187,"longitude":5.398913930872658},{"number":1228,"name":"1228-LA PLAINE SUD","address":"LA PLAINE SUD - RUE DES TROIS MAGES ANGLE PLACE JEAN JAURES","latitude":43.29441078214159,"longitude":5.38545312564012},{"number":4293,"name":"4293- BLANCARDE","address":"BLANCARDE - GARE DE LA BLANCARDE","latitude":43.29626340517055,"longitude":5.406000803377506},{"number":8313,"name":"8313- PARC PASTRE","address":"PARC PASTRE - ANGLE AVENUE DE MONTREDON ET AVENUE D'OUTRE MER","latitude":43.23984252335505,"longitude":5.366506599649465},{"number":5107,"name":"5107-BAILLE CONCEPTION","address":"BAILLE CONCEPTION  - 145 BOULEVARD BAILLE","latitude":43.28872669088929,"longitude":5.39403885378465},{"number":2030,"name":"2030-REPUBLIQUE DAMES","address":"RPUBLIQUE DAMES - 68 BOULEVARD DES DAMES","latitude":43.30255028371949,"longitude":5.369497428189588},{"number":5058,"name":"5058 -SAKAKINI - SAINT PIERRE","address":"SAKAKINI SAINT PIERRE - BOULEVARD SAKAKINI ANGLE RUE SAINT PIERRE","latitude":43.292800863545835,"longitude":5.401285286456447},{"number":6237,"name":"6237-LIEUTAUD JULIEN","address":"LIEUTAUD JULIEN - FACE AU 20 BOULEVARD THEODORE THURNER","latitude":43.2921244873688,"longitude":5.38299269172725},{"number":1245,"name":"1245-GAMBETTA - LAFAYETTE","address":"GAMBETTA LAFAYETTE - 6 ALLEES LEON GAMBETTA","latitude":43.29902793826475,"longitude":5.381500046726694},{"number":8132,"name":"8132-PROMENADE POMPIDOU AMIRAL MUSELIER","address":"PROMENADE POMPIDOU AMIRAL MUSELIER - PROMENADE GEORGES POMPIDOU DEVANT LA PLACE AMIRAL MUSELIER","latitude":43.26469407213291,"longitude":5.373281108125947},{"number":8145,"name":"8145-ESCALE BORELY","address":"ESCALE BORELY - ANGLE ESCALE BORELY ET AVENUE BONNEVEINE","latitude":43.25505597847173,"longitude":5.376413023650641},{"number":9219,"name":"9219-PUGETTE - ANDRE","address":"PUGETTE ANDRE - ANGLE AVENUE DU GENERAL ANDRE FACE AU 23 BOULEVARD DE LA PUGETTE","latitude":43.268405140653144,"longitude":5.400635371105712},{"number":8134,"name":"8134-ROND POINT DU PRADO","address":"ROND POINT DU PRADO - 300 AVENUE DU PRADO","latitude":43.27278734452526,"longitude":5.391048744484495},{"number":2341,"name":"2341- JOLIETTE FORBIN","address":"JOLIETTE FORBIN - PLACE DE LA JOLIETTE ANGLE RUE DE FORBIN","latitude":43.3047137105911,"longitude":5.36771555892562},{"number":7027,"name":"7027-PLACE DU 4 SEPTEMBRE","address":"2 RUE CAPITAINE DESSEMOND","latitude":43.2884327278463,"longitude":5.3586207351308},{"number":8131,"name":"8131-PROMENADE POMPIDOU DAVID","address":"PROMENADE POMPIDOU DAVID -  PROMENADE GEORGES POMPIDOU AU NIVEAU DU ROND POINT DE DAVID","latitude":43.26178202177259,"longitude":5.374505152575336},{"number":6160,"name":"6160-153 PARADIS","address":"153 PARADIS - 153 RUE PARADIS","latitude":43.28683835122117,"longitude":5.379450180172236},{"number":4111,"name":"4111-FOCH FAYOLLE","address":"FOCH FAYOLLE - ANGLE AVENUE MARECHAL FOCH ET RUE MARECHAL FAYOLLE","latitude":43.301185515493664,"longitude":5.398630311705657},{"number":6208,"name":"6208-ROUET","address":"ROUET - 48 RUE DU ROUET","latitude":43.28350144850817,"longitude":5.386461522334788},{"number":2012,"name":"2012-GRAND RUE","address":"GRAND RUE - FACE AU 35 GRAND'RUE","latitude":43.29780955608182,"longitude":5.370835093727862},{"number":1001,"name":"1001 - CANEBIERE REINE ELISABETH","address":"CANEBIERE REINE ELISABETH - CANEBIERE ANGLE REINE ELISABETH","latitude":43.295686109850145,"longitude":5.375339514183368},{"number":2323,"name":"2323 -FORBIN PARIS","address":"FORBIN PARIS - RUE DE FORBIN ANGLE BOULEVARD DE PARIS","latitude":43.30598895681527,"longitude":5.37224035119238},{"number":9260,"name":"9260- MAZARGUES - ALMERAS","address":"MAZARGUES ALMERAS - ANGLE AVENUE DE MAZARGUES ET IMPASSE ALMERAS","latitude":43.25096285100345,"longitude":5.39517783172075},{"number":8144,"name":"8144-ESCALE BORELY POINTE ROUGE","address":"ESCALE BORELY POINTE ROUGE - ESCALE BORELY EN DIRECTION DE L'AVENUE POINTE ROUGE","latitude":43.25394372546869,"longitude":5.37599738915791},{"number":8067,"name":"8067-PRADO GABES","address":"PRADO GABES - AVENUE DU PRADO ANGLE BD DE GABES","latitude":43.2668438148239,"longitude":5.38279581908046},{"number":7062,"name":"7062-88 CORNICHE - KENNEDY","address":"88 CORNICHE KENNEDY - 88 CORNICHE J.F. KENNEDY","latitude":43.284213979400505,"longitude":5.349696475467313},{"number":1210,"name":"1210-BEAUVAU - CANEBIERE","address":"BEAUVAU CANEBIERE - RUE BEAUVAU","latitude":43.29542125608577,"longitude":5.375165446771129},{"number":2327,"name":"2327- RÉPUBLIQUE PLUMIER","address":"REPUBLIQUE PLUMIER - RUE DE LA REPUBLIQUE ANGLE RUE PLUMIER","latitude":43.304190155898155,"longitude":5.367786407891749},{"number":1004,"name":"1004-GENERAL DE GAULLE PARADIS","address":"GENERAL DE GAULLE PARADIS - PLACE GENERAL DE GAULLE FACE AU 11 RUE PARADIS","latitude":43.29494730625887,"longitude":5.37602674729877},{"number":6020,"name":"6020-PLACE DE LA CORDERIE","address":"PLACE CORDERIE - AU CENTRE DE LA PLACE CORDERIE","latitude":43.29076433240633,"longitude":5.372259932395231},{"number":5280,"name":"5280-CHAVE CAMAS","address":"CHAVE CAMAS - BOULEVARD CHAVE ANGLE RUE DU CAMAS","latitude":43.29581102315005,"longitude":5.396312199117862},{"number":7064,"name":"7064-CORNICHE  LE PROPHETE","address":"CORNICHE LE PROPHETE - 327 CORNICHE J.F KENNEDY FACE A LA PLAGE DU PROPHETE EN DIRECTION DU VIEUX PORT","latitude":43.27370831724611,"longitude":5.362608275091751},{"number":8290,"name":"8290- POINTE ROUGE - MONTREDON","address":"POINTE ROUGE MONTREDON - ANGLE AVENUE ODESSA ET AVENUE MONTREDON","latitude":43.243802055963265,"longitude":5.370540756635374},{"number":8262,"name":"8262-MAZARGUES-BARRAL","address":"MAZARGUES BARRAL - ANGLE AVENUE DE MAZARGUES ET BOULEVARD BARRAL","latitude":43.263999455764186,"longitude":5.392402358314715},{"number":1005,"name":"1005-CENTRE BOURSE","address":"CENTRE BOURSE - RUE BIR HAKEIM ENTREE CENTRE BOURSE","latitude":43.297138004748,"longitude":5.377103061958931},{"number":1316,"name":"1316 -ST CHARLES FACULTÉ","address":"SAINT CHARLES FACULTE - BOULEVARD GUSTAVE DESPLACES ANGLE AVENUE DU GENERAL LECLERC","latitude":43.304244359587024,"longitude":5.378292250179226},{"number":7025,"name":"7025-LIVON PASTEUR","address":"LIVON PASTEUR - BOULEVARD CHARLES LIVON ANGLE ESPLANADE DU PHARO","latitude":43.29198908246378,"longitude":5.357823161216201},{"number":2221,"name":"2221-91 LIBÉRATION","address":"91 LIBERATION - 91 BOULEVARD DE LA LIBERATION","latitude":43.30050650960441,"longitude":5.389298285180646},{"number":7146,"name":"7146-LIVON VIEUX PORT","address":"LIVON VIEUX PORT - 36 BOULEVARD CHARLES LIVON","latitude":43.29224532184672,"longitude":5.360224853219125},{"number":8065,"name":"8065-PROMENADE POMPIDOU PALM BEACH","address":"PROMENADE POMPIDOU PALM BEACH - 6 PROMENADE GEORGES POMPIDOU","latitude":43.267272515671856,"longitude":5.372088524255505},{"number":5060,"name":"5060-SAKAKINI CHAVE","address":"SAKAKINI CHAVE - 236 BOULEVARD CHAVE EN DIRECTION DE SAKAKINI","latitude":43.29570956843267,"longitude":5.399877070301781},{"number":5024,"name":"5024-BAILLE PAURIOL","address":"BAILLE PAURIOL - 114 BOULEVARD BAILLE ANGLE RUE PAURIOL","latitude":43.287814455889425,"longitude":5.391331392803749},{"number":8255,"name":"8255-PRADO - PARADIS","address":"PRADO PARADIS - 390 AVENUE DU PRADO","latitude":43.26954179693142,"longitude":5.386273779435491},{"number":4057,"name":"4057-PLACE SEBASTOPOL","address":"PLACE SEBASTOPOL - 20 PLACE SEBASTOPOL","latitude":43.298680879912176,"longitude":5.397216233775408},{"number":8093,"name":"8093-HAMBOURG ROND POINT GUERRE","address":"HAMBOURG RONT POINT GUERRE - BOULEVARD DE HAMBOURG ANGLE ROND POINT PIERRE GUERRE","latitude":43.249867874570256,"longitude":5.389411648303773},{"number":1006,"name":"1006-COURS JEAN BALLARD","address":"COURS JEAN BALLARD - 5 COURS JEAN BALLARD","latitude":43.29336790915692,"longitude":5.374638177288532},{"number":7138,"name":"7138-CORNICHE  ENDOUME","address":"CORNICHE ENDOUME - 126 CORNICHE J.F. KENNEDY","latitude":43.28250633472905,"longitude":5.350628425025786},{"number":4342,"name":"4342 - FLAMMARION MONTRICHET","address":"FLAMMARION MONTRICHET - PLACE LE VERRIER ANGLE BD FLAMMARION ET  BD MONTRICHET","latitude":43.305993453766845,"longitude":5.393678259953781},{"number":8246,"name":"8246-PARADIS - LORD DUVEEN","address":"PARADIS LORD DUVEEN - 395 RUE PARADIS","latitude":43.275618147775035,"longitude":5.384455147739253},{"number":8053,"name":"8053-PRADO - PERIER","address":"PRADO PERIER - 127 AVENUE DU PRADO","latitude":43.27974214607358,"longitude":5.387431047255536},{"number":3322,"name":"3322 - ARENC CHANTERAC","address":"32 rue de Chanterac 13003 Marseille","latitude":43.3123370339008,"longitude":5.3687418043728},{"number":913,"name":"913 - PLAGE DES DAMES","address":"36 Promenade du grand large 13008","latitude":43.240392,"longitude":5.362533},{"number":1275,"name":"1275- JULIEN - 3 MAGES","address":"JULIEN 3 MAGES - COURS JULIEN ANGLE RUE DES TROIS MAGES","latitude":43.29562159175117,"longitude":5.382390401095631},{"number":8066,"name":"8066-MENDES FRANCE HUVEAUNE","address":"MENDES FRANCE HUVEAUNE - AVENUE PEIRRE MENDES FRANCE DEVANT L'ENTREE DU PARC BORELY","latitude":43.260217853801166,"longitude":5.37544360265886},{"number":6187,"name":"6187-DELPUECH CORINTHE","address":"DELPUECH CORINTHE - 29 BOULEVARD DELPUECH","latitude":43.28292930261343,"longitude":5.39109605124139},{"number":8261,"name":"8261- 318 MAZARGUES","address":"318 MAZARGUES - FACE AU 318 AVENUE DE MAZARGUES","latitude":43.260699609117914,"longitude":5.393973899334583},{"number":7212,"name":"7212-SAINTE - NOTRE DAME","address":"SAINTE NOTRE DAME - 70 RUE SAINTE ANGLE RUE FORT NOTRE DAME","latitude":43.291634709693945,"longitude":5.371370384862697},{"number":8202,"name":"8202-397 PRADO","address":"397 PRADO - 397 AVENUE DU PRADO","latitude":43.26869900851042,"longitude":5.385552216536626},{"number":3321,"name":"3321 - BELLE DE MAI FRICHE","address":"BELLE DE MAI FRICHE - ANGLE RUE GUIBAL ET RUE JOBIN","latitude":43.30958891338201,"longitude":5.39024943158741},{"number":1226,"name":"1226-PLAINE-ST PIERRE","address":"PLAINE ST PIERRE - RUE SAINT PIERRE ANGLE PLACE JEAN JAURES","latitude":43.293880006338135,"longitude":5.386729879719248},{"number":7151,"name":"7151-PASTEUR","address":"PASTEUR - 25 AVENUE PASTEUR","latitude":43.290716834278136,"longitude":5.359258014511654},{"number":9259,"name":"9259-LANCIER-MARTHELINE","address":"LANCIER MARTHELINE - ANGLE CHEMIN DU LANCIER ET AVENUE DE LA  MARTHELINE","latitude":43.24759828978683,"longitude":5.397126739923842},{"number":6253,"name":"06253 - ROME SYLVABELLE","address":"angle rue de rome rue sylvabelle","latitude":43.290022,"longitude":5.381324},{"number":8310,"name":"8310- CANTINI REGE","address":"","latitude":43.281484,"longitude":5.391515},{"number":6154,"name":"6154-PIERRE PUGET BRETEUIL","address":"PIERRE PUGET BRETEUIL - COURS PIERRE PUGET ANGLE RUE BRETEUIL","latitude":43.290329770206334,"longitude":5.375548341850035},{"number":5284,"name":"5284 - BAILLE-HOPITAL-CONCEPTION","address":"BAILLE HOPITAL CONCEPTION - BOULEVARD BAILLE FACE A L'ENTREE PRINCIPALE DE L'HOPITAL DE LA CONCEPTION","latitude":43.28936342586655,"longitude":5.39631317835792},{"number":2240,"name":"2240-DAMES - TERRAS","address":"DAMES TERRAS - BOULEVARD DES DAMES ANGLE RUE DU TERRAS","latitude":43.301805741199246,"longitude":5.372302255725486},{"number":1302,"name":"1302-COLBERT -SAINTE BARBE","address":"COLBERT SAINTE BARBE - RUE COLBERT ANGLE RUE SAINTE BARBE","latitude":43.29924603474944,"longitude":5.374740047327954},{"number":7026,"name":"7026-CATALANS CORNICHE","address":"CATALANS CORNICHE - 69 CORNICHE J.F. KENNEDY ANGLE RUE DES CATALANS","latitude":43.28985620147398,"longitude":5.355962903211387},{"number":1002,"name":"1002-HOTEL DE VILLE","address":"HOTEL DE VILLE - Face au 42 QUAI DU PORT","latitude":43.2961387765145,"longitude":5.3707713851323},{"number":6176,"name":"6176-CANTINI ROUET","address":"CANTINI ROUET - FACE AU 27 AVENUE JULES CANTINI","latitude":43.284775983612235,"longitude":5.385593763617925},{"number":2304,"name":"2304 - RÉPUBLIQUE MOISSON","address":"REPUBLIQUE MOISSON - RUE DE LA REPUBLIQUE ANGLE RUE FRANCOIS MOISSON","latitude":43.30179774806541,"longitude":5.369716218117023},{"number":1191,"name":"1191-CANEBIERE-ST FERREOL","address":"CANEBIERE SAINT FERREOL - ANGLE CANEBIERE SAINT FERREOL","latitude":43.29620767061392,"longitude":5.37693066220596},{"number":6114,"name":"6114-JULIEN BARTHELEMY","address":"JULIEN BARTHELEMY - 9 RUE 3 FRERES BARTHELEMY","latitude":43.292604598053984,"longitude":5.384138435260716},{"number":1264,"name":"1264 - CANEBIÈRE DUGOMMIER","address":"CANEBIERE DUGOMMIER - LA CANEBIERE ANGLE BOULEVARD DUGOMMIER","latitude":43.29789631329341,"longitude":5.381132215559973},{"number":6206,"name":"6206-TOULON - MENPENTI","address":"TOULON MENPENTI - ANGLE AVENUE DE TOULON ET RUE MENPENTI","latitude":43.284456097132846,"longitude":5.392112767343369},{"number":2222,"name":"2222-151 LIBERATION","address":"151 LIBERATION - 151 BOULEVARD DE LA LIBERATION","latitude":43.30143187524121,"longitude":5.392179383331833},{"number":5104,"name":"5104-CHAVE EUGÈNE PIERRE","address":"CHAVE EUGENE PIERRE - BOULEVARD CHAVE ANGLE BOULEVARD EUGENE PIERRE","latitude":43.295363145406,"longitude":5.390871390171412},{"number":1299,"name":"1299- ST CHARLES VOLTAIRE LIBERTÉ","address":"SAINT CHARLES VOLTAIRE LIBERTE - BOULEVARD VOLTAIRE ANGLE BOULEVARD DE LA LIBERTE","latitude":43.30236655745069,"longitude":5.383955032544848},{"number":1211,"name":"1211-BEAUVAU - SUFFREN","address":"BEAUVAU SUFFREN - RUE BEAUVAU ANGLE RUE BAILLI DE SUFFREN","latitude":43.294774773558274,"longitude":5.375131220340518},{"number":5106,"name":"5106-JEAN MOULIN BAILLE","address":"JEAN MOULIN BAILLE - BOULEVARD JEAN  MOULIN ANGLE BOULEVARD BAILLE","latitude":43.2902407800378,"longitude":5.39960982405674},{"number":2200,"name":"2200-MUCEM","address":"Bd du Littoral, 100 m avant le Mucem, devant l’entrée du parking Vieux Port Fort St Jean, direction vieux port","latitude":43.2984594666424,"longitude":5.36291062831879},{"number":8309,"name":"8309- PRADO DUVEEN","address":"PRADO DUVEEN - 72 AVENUE DU PRADO","latitude":43.27654702249427,"longitude":5.388799649683594},{"number":8265,"name":"8265- NÉGRESKO - PAULET","address":"NEGRESKO PAULET - FACE AU 42 RUE NEGRESKO","latitude":43.269318556371154,"longitude":5.389387542314263},{"number":2032,"name":"2032- DAMES  SCHUMANN","address":"DAMES SCHUMANN - 96 BOULEVARD DES DAMES","latitude":43.30331167287617,"longitude":5.366730359523051},{"number":1287,"name":"1287- STALINGRAD - RÉFORMÉS","address":"STALINGRAD REFORMES - SQUARE STALINGRAD","latitude":43.29952097558015,"longitude":5.385047448641554},{"number":8308,"name":"8308-PRADO LATIL","address":"PRADO LATIL - 247 AVENUE DU PRADO","latitude":43.274352269730755,"longitude":5.390405906592448},{"number":7153,"name":"7153-CORSE ST MAURICE","address":"CORSE SAINT MAURICE - 28 AVENUE DE LA CORSE ANGLE RAMPE SAINT MAURICE","latitude":43.28946760889984,"longitude":5.36370990786361},{"number":8078,"name":"8078-VIEILLE CHAPELLE","address":"VIEILLE CHAPELLE - 35 AVENUE DE LA POINTE ROUGE","latitude":43.24789994774334,"longitude":5.374447484757423},{"number":6348,"name":"6348 - ROME- SALVATOR-ITALIE","address":"3 Boulevard Louis Salvator angle rue d'Italie","latitude":43.290978,"longitude":5.381342},{"number":1224,"name":"1224-PLAINE - BIBLIOTHEQUE","address":"PLAINE BIBLIOTHEQUE - 45 RUE DE LA BIBLIOTHEQUE","latitude":43.29582518327951,"longitude":5.385996090720193},{"number":4022,"name":"4022-SAKAKINI FOCH","address":"SAKAKINI FOCH - BOULAVARD SAKAKINI ANGLE AVENUE MARECHAL FOCH","latitude":43.29952274790985,"longitude":5.401127142110414},{"number":1213,"name":"1213-GRIGNAN - MARCELLE PAUL","address":"GRIGNAN MARCELLE PAUL - RUE GRIGNAN ANGLE RUE DE LA PAIX MARCELLE PAUL","latitude":43.291357465205536,"longitude":5.373546945382951}]