[{"number":55,"name":"00055 - ST SERNIN G. ARNOULT","address":"2 RUE GATIEN ARNOULT","latitude":43.608951960496405,"longitude":1.441003598726198},{"number":195,"name":"00195 - LARROUSSE -RIEUX","address":"FACE 15 RUE PIERRE LAROUSSE","latitude":43.59723540303583,"longitude":1.45907112459247},{"number":29,"name":"00029 - VALADE","address":"31 RUE VALADE","latitude":43.605071904633625,"longitude":1.437032051956223},{"number":280,"name":"280 - CHARBONNIERE","address":"RUE DE LA CHARBONNIERE ANGLE RUE DES PALMIERS 31000 TOULOUSE","latitude":43.57383,"longitude":1.44871},{"number":156,"name":"00156 - METRO EMPALOT","address":"38 AV JEAN MOULIN FACE DEBOUCHE RUE DE CANNES","latitude":43.579737115748195,"longitude":1.441783289134449},{"number":242,"name":"00242 -  RAIMBAUD / COLETTE","address":"RUE RAIMBAUD ANGLE RUE COLETTE","latitude":43.633866178151905,"longitude":1.437493796200118},{"number":224,"name":"00224 - CAMPUS SUPAERO","address":"AVENUE EDOUARD BELIN FACE CHÂTEAU DU CREPS","latitude":43.566595761363736,"longitude":1.474881961695726},{"number":229,"name":"00229 - IUT RANGUEIL","address":"129 AV DE RANGUEIL","latitude":43.571433064051334,"longitude":1.46278065695466},{"number":154,"name":"00154 - GALLOIS","address":"RUE DES GALLOIS","latitude":43.58995890864312,"longitude":1.4420311550308},{"number":96,"name":"00096 - MEDIATHEQUE","address":"50 RUE DU GENERAL COMPANS","latitude":43.60974282737991,"longitude":1.455204795385279},{"number":65,"name":"00065 - VERDIER - GRAND ROND","address":"2 ALL FORAIN FRANCOIS VERDIER","latitude":43.597074846780274,"longitude":1.452605307400692},{"number":22,"name":"00022 - CARNOT ROLAND","address":"24 BD LAZARE CARNOT","latitude":43.60221990815785,"longitude":1.45195665819857},{"number":236,"name":"00236 - TOEC / LEMIRE","address":"RUE DE L'ABBE JULES LEMIRE","latitude":43.59729443895585,"longitude":1.403872948950036},{"number":111,"name":"00111 - MINIMES PASSERELLE","address":"38B BD DES MINIMES","latitude":43.615259799224134,"longitude":1.442921175845342},{"number":243,"name":"00243 - ETATS-UNIS / FERRY","address":"96 av des Etats-Unis angle rue Jules Ferry","latitude":43.632641237523,"longitude":1.43180804154469},{"number":152,"name":"00152 - MAZADES","address":"10 AV DES MAZADES","latitude":43.624183134252704,"longitude":1.438302180907754},{"number":174,"name":"00174 - MAUNOURY / MELA","address":"41 AV MAURICE BOURGES MAUNOURY","latitude":43.63692179179762,"longitude":1.452693250180783},{"number":276,"name":"00276 - MARIN REBOUL","address":"chemin du Marin angle chemin du Reboul","latitude":43.58132,"longitude":1.37975},{"number":77,"name":"00077 - PLACE INT SAINT CYPRIEN","address":"2 PL INTERIEURE ST CYPRIEN","latitude":43.597835830061406,"longitude":1.431605284631358},{"number":137,"name":"00137 - BRUNHES-FONTAINES","address":"47 BD JEAN BRUNHES","latitude":43.60094924792523,"longitude":1.420275802412521},{"number":144,"name":"00144 - SUISSE - LAUSANE","address":"62 BD DE SUISSE","latitude":43.61606217398145,"longitude":1.421715694303944},{"number":40,"name":"00040 - COLOMBETTE","address":"41 RUE DE LA COLOMBETTE","latitude":43.604660136134775,"longitude":1.453588691746783},{"number":25,"name":"00025 - PLACE ROUAIX","address":"1 RUE DES TOURNEURS","latitude":43.599435045967155,"longitude":1.445580732388259},{"number":74,"name":"00074 - LAGANNE TEINTURIERS","address":"37 RUE LAGANNE","latitude":43.596660562935625,"longitude":1.436175197009508},{"number":71,"name":"00071 - COURS DILLON","address":"3 RUE LAGANNE","latitude":43.59318934283672,"longitude":1.434894328349442},{"number":105,"name":"00105 - BILLIERE -CHAMPETRE","address":"12  AV  ETIENNE  BILLIERES","latitude":43.59764204883991,"longitude":1.428862699237109},{"number":64,"name":"00064 - PERI MERCADIER","address":"0030 RUE GABRIEL PERI","latitude":43.60617263070887,"longitude":1.454987798766018},{"number":3,"name":"00003 - POMME","address":"62 RUE DE LA POMME","latitude":43.60333593826575,"longitude":1.445569311598848},{"number":139,"name":"00139 - BARRIERE DE LOMBEZ","address":"39 BIS AV DE LOMBEZ","latitude":43.5955673906372,"longitude":1.418420510391943},{"number":93,"name":"00093 - PRINTEMPS","address":"57 RUE DU PRINTEMPS","latitude":43.614465544425535,"longitude":1.44361404386217},{"number":81,"name":"00081 - JARDIN RAYMOND VI","address":"ALL CHARLES DE FITTE","latitude":43.59989498759688,"longitude":1.429556601823956},{"number":60,"name":"00060 - ROQUELAINE","address":"32 PL ROQUELAINE","latitude":43.61263652233987,"longitude":1.448541598385468},{"number":36,"name":"00036 - PLACE SCHUMAN","address":"5 PL ROBERT SCHUMAN","latitude":43.609623167283914,"longitude":1.449367822982907},{"number":227,"name":"00227 - METRO UPS","address":"118  RTE DE NARBONNE","latitude":43.56160969546884,"longitude":1.462869145576551},{"number":248,"name":"00248 - BOUQUETINS/E. ROSTAND","address":"RUE DES BOUQUETINS ANGLE RUE EDMOND ROSTAND","latitude":43.64108958806659,"longitude":1.449039275575635},{"number":53,"name":"00053 - PLACE SAINT JULIEN","address":"PL SAINT JULIEN","latitude":43.60863633636605,"longitude":1.437631489341106},{"number":187,"name":"00187 - DESBALS MONTDORE","address":"187 RUE HENRI DESBALS","latitude":43.584523123495174,"longitude":1.415543960373121},{"number":87,"name":"00087 - LASCROSSES LECLERC","address":"47 BD LASCROSSES","latitude":43.609500004240715,"longitude":1.432335729928681},{"number":225,"name":"00225 - BELIN ONERA","address":"AVENUE EDOUARD BELIN DEVANT ONERA","latitude":43.56947707206279,"longitude":1.473268554354084},{"number":121,"name":"00121 - SERRES - A. BERNARD","address":"33 AV HONRE SERRES","latitude":43.612327522628846,"longitude":1.438340345212284},{"number":84,"name":"00084 - BRIENNE MANUFACTURE","address":"19T ALL DE BRIENNE","latitude":43.60524239596951,"longitude":1.432687682718845},{"number":208,"name":"00208 - LIMAYRAC/ DARASSE","address":"ALL DE LIMAYRAC","latitude":43.59122002356995,"longitude":1.480087483756261},{"number":131,"name":"00131 - BERNIES","address":"15 RUE PAUL BERNIES","latitude":43.61174111564092,"longitude":1.414597471267562},{"number":239,"name":"00239 - LESPINET / HERBETTES","address":"FACE AU 127 AVENUE DE LESPINET","latitude":43.577166917623245,"longitude":1.469393836823441},{"number":1,"name":"00001 - POIDS DE L'HUILE","address":"12 RUE DU POIDS DE L'HUILE","latitude":43.604134687021045,"longitude":1.445420780739279},{"number":37,"name":"00037 - STE LUCIE","address":"53 RUE STE LUCIE","latitude":43.593506929037055,"longitude":1.429880706043356},{"number":7,"name":"00007 - PLACE VICTOR HUGO","address":"6 RUE DU REMPART VILLENEUVE","latitude":43.605852162177925,"longitude":1.446593812218414},{"number":259,"name":"00259 - PLACE RICHE","address":"Place Riche / Lalande - 31000 TOULOUSE","latitude":43.64751,"longitude":1.43298},{"number":234,"name":"00234 - LOIN / RAYNAL","address":"RUE LOIN 100M AVT RAYNAL","latitude":43.628236592839514,"longitude":1.451330504561275},{"number":192,"name":"00192 - RTE DE ST SIMON/PRADO","address":"355 route de saint-Simon","latitude":43.587659413053814,"longitude":1.409162125552512},{"number":48,"name":"00048 - PLACE DU SALIN","address":"18 PL DU SALIN","latitude":43.59474911973265,"longitude":1.444132711268797},{"number":266,"name":"00266 - TOURAINE","address":"38 RUE DE LA TOURAINE ANGLE RUE D AUVERGNE 31000 TOULOUSE","latitude":43.57375,"longitude":1.41398},{"number":175,"name":"00175 - METRO MAUNOURY","address":"Avenue Maurice BOURGES MAUNOURY","latitude":43.6394555737186,"longitude":1.45256734914219},{"number":166,"name":"00166 - RANGUEIL GUYOU","address":"23 RUE GUYOU","latitude":43.574366149048714,"longitude":1.462031097914686},{"number":135,"name":"00135 - BONNEFOY   LEMAITRE","address":"183 RUE DU FB  BONNEFOY","latitude":43.62295,"longitude":1.45872},{"number":79,"name":"00079 - PLACE LANGE","address":"1 PL LANGE","latitude":43.60112880561738,"longitude":1.434138106708093},{"number":210,"name":"00210 - TERRASSE/ CENTRE CO.","address":"FACE 42 CHE DE LA TERRASSE","latitude":43.586074956653995,"longitude":1.483021040946601},{"number":75,"name":"00075 - CHATEAU D EAU","address":"12 PL LAGANNE","latitude":43.598542607102175,"longitude":1.436590757220506},{"number":115,"name":"00115 - DEMOISELLES MISTRAL","address":"8 ALL DES DEMOISELLES","latitude":43.590622011025665,"longitude":1.453805825078145},{"number":221,"name":"00221 - VAUQUELIN","address":"FACE 85 RUE VAUQUELIN","latitude":43.57641895477528,"longitude":1.406488768851485},{"number":128,"name":"00128 - PRISON ST MICHEL","address":"18 B GRANDE RUE ST MICHEL","latitude":43.58589564207925,"longitude":1.447411881616044},{"number":67,"name":"00067 - MUSEUM","address":"35 ALL JULES GUESDE","latitude":43.59468,"longitude":1.44938},{"number":188,"name":"00188 - MURET/LAFAGE","address":"121 AVENUE DE MURET","latitude":43.584282965328995,"longitude":1.427517107421507},{"number":178,"name":"00178 - BRUNAUD / PLANA","address":"AVENUE YVES BRUNAUD","latitude":43.619281402937425,"longitude":1.468753766918999},{"number":41,"name":"00041 - ST AUBIN CAMICHEL","address":"1 RUE CHARLES CAMICHEL","latitude":43.60265364232074,"longitude":1.454436078796189},{"number":90,"name":"00090 - LASCROSSES- A. BERNARD","address":"3B BD LASCROSSES","latitude":43.61146971436288,"longitude":1.437871385550754},{"number":68,"name":"00068 - METRO - PALAIS DE JUSTICE","address":"1 BIS ALLEE JULES GUESDE","latitude":43.59265,"longitude":1.44455},{"number":147,"name":"00147 - CHAUSSAS - DAUDET","address":"96 RUE DE CHAUSSAS","latitude":43.61990748467363,"longitude":1.428966282419491},{"number":109,"name":"00109 - METRO CANAL DU MIDI","address":"1 BD DE LA MARQUETTE","latitude":43.615173611788045,"longitude":1.434707777421923},{"number":153,"name":"00153 - BOURGES MAUNOURY","address":"12 AV BOURGES MAUNOURY","latitude":43.628469420497346,"longitude":1.447936286895422},{"number":262,"name":"00262 - ROND POINT CHEMIN DE BORDEROUGE","address":"Devant N°26 Chemin de Borderouge","latitude":43.64265,"longitude":1.45632},{"number":197,"name":"00197 - CASERNE PERIGNON","address":"6 AV LOUIS BLERIOT","latitude":43.60038605818475,"longitude":1.464093716152017},{"number":23,"name":"00023 - COMBATTANTS","address":"6 BD LAZARE CARNOT","latitude":43.60128593726337,"longitude":1.452057713684133},{"number":273,"name":"00273 - PASSERIEU - ST SIMON","address":"ROND POINT DES IZARD ANGLEPASSERIEU ET ROUTE ST SIMON","latitude":43.5792,"longitude":1.39262},{"number":183,"name":"00183 - RUE DE CUGNAUX","address":"RUE DE CUGNAUX","latitude":43.5931301810241,"longitude":1.42463077628583},{"number":126,"name":"00126 - ECOLE BONNEFOY","address":"18 RUE BONNEFOY","latitude":43.61689063107848,"longitude":1.454339701099757},{"number":255,"name":"00255 - HENRI SELLIER","address":"2 RUE DES MOUETTES ANGLE ALLEES SELLIER 31000 TOULOUSE","latitude":43.57705,"longitude":1.44009},{"number":233,"name":"00233 - NARBONNE /SAHUQUE","address":"105 RTE DE NARBONNE","latitude":43.56641276350635,"longitude":1.458852500499583},{"number":254,"name":"00254 - LOT - VESTREPAIN","address":"RUE DU LOT - 100M AVANT LA RUE VESTREPAIN 31400 TOULOUSE","latitude":43.5837,"longitude":1.40644},{"number":21,"name":"00021 - CARNOT LABEDA","address":"63 BD LAZARE CARNOT","latitude":43.60411143798555,"longitude":1.450245130369442},{"number":244,"name":"00244 - RENAN / VITRY","address":"93 RUE ERNEST RENAN ANGLE RUE VITRY","latitude":43.635706776069696,"longitude":1.443751822397876},{"number":24,"name":"00024 - PLACE SAINT ETIENNE","address":"14 PL SAINT ETIENNE","latitude":43.600398667412286,"longitude":1.450179100392055},{"number":245,"name":"00245 - GRANDE BRETAGNE / BADIOU","address":"103 BIS AVENUE DE GRANDE BRETAGNE ANGLE RUE BADIOU","latitude":43.59990824072129,"longitude":1.41518438915584},{"number":196,"name":"00196 - GOUJON - GUILHEMERY","address":"6 RUE JEAN GOUJON","latitude":43.6017932127447,"longitude":1.458048662941769},{"number":281,"name":"281 - NIEL","address":"RUE ST ROCH FACE RUE ELVIRE 31000 TOULOUSE","latitude":43.57886,"longitude":1.44649},{"number":260,"name":"00260 - DUCLOS - FRONTON","address":"Avenue duclos angle Avenue de Fronton","latitude":43.64495,"longitude":1.43379},{"number":228,"name":"00228 - METRO PHARMACIE","address":"FACE 35 CHEMIN DES MARAICHERS","latitude":43.567716505871594,"longitude":1.464456852027628},{"number":124,"name":"00124 - EGLISE DES MINIMES","address":"27 AV DES MINIMES","latitude":43.61814891164924,"longitude":1.436875386155235},{"number":207,"name":"00207 - CHRIST ROI","address":"FACE 25 RUE DE L AUDE","latitude":43.58300698375498,"longitude":1.481508972569192},{"number":11,"name":"00011 - PLACE DE LA DAURADE","address":"2 PL DE LA DAURADE","latitude":43.60215,"longitude":1.44026},{"number":186,"name":"00186 - DESBALS BOUALAM","address":"1 IMPASSE BACHAGA BOUALAM","latitude":43.5792182218804,"longitude":1.41112908179427},{"number":235,"name":"00235 - PAUL VERLAINE","address":"FACE AU 8 RUE PAUL VERLAINE","latitude":43.6333722270955,"longitude":1.43538536091475},{"number":150,"name":"00150 - CURIE CAMPISTRON","address":"78 BD PIERRE ET MARIE CURIE","latitude":43.62593095954932,"longitude":1.439870900566373},{"number":252,"name":"00252 - NEGRENEYS /CASENEUVE","address":"161/163 AV DE NEGRENEYS SUR ILOT CENTRAL","latitude":43.62687,"longitude":1.44404},{"number":184,"name":"00184 - MICHOUN","address":"70 CHEMIN MICHOUN","latitude":43.62727712277727,"longitude":1.469362217455508},{"number":271,"name":"00271 - ANCELY","address":"151 AVENUE DE CASSELARDIT SORTIE VILLE 31000 TOULOUSE","latitude":43.61948,"longitude":1.39711},{"number":33,"name":"00033 - BERALDI","address":"11 RUE HENRI BERALDI","latitude":43.608568713084686,"longitude":1.443570238387108},{"number":161,"name":"00161 - RANGUEIL - BEDOUCE","address":"35 AV DE RANGUEIL","latitude":43.57644751100008,"longitude":1.454915112024358},{"number":172,"name":"00172 - NETWILLER / LAFORGUE","address":"RUE HENRI EBELOT","latitude":43.642833569777416,"longitude":1.461191671613412},{"number":120,"name":"00120 - PONTS JUMEAUX","address":"152 ALL DE BARCELONE","latitude":43.61035351524297,"longitude":1.420545407442975},{"number":268,"name":"00268 - PLACE BAYLAC","address":"avenue des Arènes Romaines, avant place du docteur Baylac 31000 TOULOUSE","latitude":43.60868,"longitude":1.3972},{"number":217,"name":"00217 - AMOUROUX/ ST TROPEZ","address":"42 CHE AMOUROUX","latitude":43.629671600633195,"longitude":1.466442513411802},{"number":82,"name":"00082 - SEJOURNE CATALANS","address":"1 AV PAUL SEJOURNE","latitude":43.605562378447424,"longitude":1.427969819484834},{"number":173,"name":"00173 - MAUNOURY / SEGELA","address":"25 AV MAURICE BOURGES MAUNOURY","latitude":43.6331828272491,"longitude":1.450535969934731},{"number":70,"name":"00070 - FER A CHEVAL","address":"5 PLACE DU FER A CHEVAL","latitude":43.59253,"longitude":1.43421},{"number":141,"name":"00141 - FONTAINE LESTANG","address":"237 RUE HENRI DESBALS","latitude":43.587583195522946,"longitude":1.418128481713567},{"number":108,"name":"00108 - SEBASTOPOL - RITAY","address":"2 BD SEBASTOPOL","latitude":43.612283701347906,"longitude":1.428790629053277},{"number":85,"name":"00085 - MARECHAL LECLERC","address":"2 BD DU MARECHAL LECLERC","latitude":43.606708008560005,"longitude":1.430598716260075},{"number":202,"name":"00202 - ST EX. - COURREGE","address":"165 AV ANTOINE DE ST EXUPERY","latitude":43.58166894906154,"longitude":1.476002176599847},{"number":102,"name":"00102 -  MISTRAL - FLEURANCE","address":"18 ALLEE FREDERIC MISTRAL","latitude":43.593599912488976,"longitude":1.453042492588597},{"number":143,"name":"00143 - DESBALS SAINTONGE","address":"145 RUE HENRI DESBALS","latitude":43.5813322052426,"longitude":1.413431676051568},{"number":106,"name":"00106 - BRIENNE PASSERELLE","address":"99 ALL DE BRIENNE","latitude":43.60842211156853,"longitude":1.42386687477895},{"number":30,"name":"00030 - PLACE ANATOLE FRANCE","address":"40 PL ANATOLE FRANCE","latitude":43.60629527233212,"longitude":1.438224999266949},{"number":170,"name":"00170 - ROUTE D ALBI   / CUVIER","address":"FACE 163 CHEMIN NICOLE","latitude":43.635666512128225,"longitude":1.464148138450798},{"number":274,"name":"00274 - GALLIENI","address":"296 route de Seysses","latitude":43.574,"longitude":1.41954},{"number":123,"name":"00123 - CHAUSSAS EMBOUCHURE","address":"1 RUE DE CHAUSSAS","latitude":43.61492465117555,"longitude":1.43288072066524},{"number":6,"name":"00006 - LOIS","address":"5 RUE DES LOIS","latitude":43.605203861405954,"longitude":1.442101445768934},{"number":213,"name":"00213 - PUJOL/ CHAUBET","address":"129 AV DE CASTRES","latitude":43.60075517705335,"longitude":1.467514131065815},{"number":257,"name":"00257 - CHATEAU DE L'HERS","address":"CHEMIN DU CHATEAU DE L'HERS ANGLE CHEMIN FONTANELLES 31000 TOULOUSE","latitude":43.60086,"longitude":1.48346},{"number":97,"name":"00097 - RAYMOND IV","address":"RUE RAYMOND IV","latitude":43.61243588156053,"longitude":1.451476646620887},{"number":49,"name":"00049 - COUTELIER - METZ","address":"52 RUE DES COUTELIERS","latitude":43.599589544431005,"longitude":1.441434965295236},{"number":191,"name":"00191 - RUE DU 14 JUILLET","address":"395 ROUTE DE SAINT SIMON","latitude":43.58998499389323,"longitude":1.415183785619737},{"number":52,"name":"00052 - DUPORTAL CITE ADMIN.","address":"41 BD ARMAND DUPORTAL","latitude":43.60864745421513,"longitude":1.434650096062823},{"number":104,"name":"00104 - MURET BARTHERE","address":"219 AV DE MURET","latitude":43.58903,"longitude":1.43104},{"number":19,"name":"00019 - CARNOT PERI","address":"62 BD LAZARE CARNOT","latitude":43.60557592007205,"longitude":1.449072022617868},{"number":13,"name":"00013 - LOIS ESQUILE","address":"1 RUE DE L ESQUILE","latitude":43.60621318190248,"longitude":1.441331077590377},{"number":129,"name":"00129 - CROIX DE PIERRE","address":"2 BD DEODAT DE SEVERAC","latitude":43.58588,"longitude":1.4278},{"number":212,"name":"00212 - CHAUMIERE/ CRETES","address":"RUE DE LA CHAUMIERE","latitude":43.615227374108336,"longitude":1.465376125032407},{"number":158,"name":"00158 - URSS ST THOMAS D AQUIN","address":"57 AV DE L URSS","latitude":43.580795461338795,"longitude":1.449135738584587},{"number":168,"name":"00168 - BILA   /  ROUTE D ALBI","address":"RUE CREMON","latitude":43.626509813353074,"longitude":1.458930207887618},{"number":179,"name":"00179 - CASSAING PLANA","address":"5 CH CASSAING","latitude":43.61680265241856,"longitude":1.473505161008297},{"number":204,"name":"00204 - PL. ROGER ARNAUD","address":"PL ROGER ARNAUD","latitude":43.58677914294868,"longitude":1.463164045792265},{"number":249,"name":"00249 - CROIX DAURADE","address":"147 RTE D'ALBI","latitude":43.63812899582609,"longitude":1.46521198710394},{"number":15,"name":"00015 - PONT MONTAUDRAN","address":"face au 20 port st sauveur","latitude":43.59642,"longitude":1.4565},{"number":247,"name":"00247 - LAUNAGUET / AUDIBERT","address":"ROUTE DE LAUNAGUET ANGLE CHEMIN AUDIBERT","latitude":43.63677495879212,"longitude":1.439230135508607},{"number":134,"name":"00134 - EGLISE BONNEFOY","address":"8 ALLEE DE L EGLISE BONNEFOY","latitude":43.61894094381528,"longitude":1.456658754907086},{"number":112,"name":"00112 - PLACE RUSSEL - BRANLY","address":"47 ALLEE BRANLY","latitude":43.585266840172814,"longitude":1.452936514925397},{"number":76,"name":"00076 - REPUBLIQUE PL. OLIVIER","address":"34 RUE DE LA REPUBLIQUE","latitude":43.59849490883457,"longitude":1.435181557097925},{"number":193,"name":"00193 - LOMBEZ / PETITE VITESSE","address":"59 AV DE LOMBEZ","latitude":43.594849382545554,"longitude":1.415377349047291},{"number":190,"name":"00190 - ESPAGNE LES OUSTALOUS","address":"39 RTE D'Espagne","latitude":43.57827536338912,"longitude":1.423916022506519},{"number":241,"name":"00241 - ESPAGNE CHARPENTIER","address":"57 Route D'Espagne","latitude":43.574576545136445,"longitude":1.424432564672875},{"number":253,"name":"00253 - ETATS-UNIS / ROBERT","address":"AV DES Etats-Unis FACE AU 68 / 70","latitude":43.6319121122554,"longitude":1.43168347755474},{"number":89,"name":"00089 - ESP COMPANS CAFFARELLI","address":"1 ESP COMPANS CAFFARELLI","latitude":43.611036915218165,"longitude":1.436628759028233},{"number":100,"name":"00100 - PORT ST SAUVEUR","address":"16 ALL PAUL SABATIER","latitude":43.59697406705044,"longitude":1.455674042776099},{"number":215,"name":"00215 - METRO ARGOULETS","address":"FACE 8 RUE DE GAILLAC","latitude":43.623814424096544,"longitude":1.475849028782433},{"number":54,"name":"00054 - CHAINE","address":"10 RUE DE LA CHAINE","latitude":43.60842033750804,"longitude":1.439762556768512},{"number":8,"name":"00008 - ESPACE SAINT GEORGES","address":"19 RUE PAUL VIDAL","latitude":43.60307769477977,"longitude":1.448047137954633},{"number":180,"name":"00180 - PLACE SOUPETARD","address":"3 Place SOUPETARD","latitude":43.6122515815792,"longitude":1.47765639323401},{"number":277,"name":"00277 - ZAMENHOF","address":"10/12 rue zamenhof - 31000 TOuLOUSE","latitude":43.58549,"longitude":1.37708},{"number":214,"name":"00214 - CASTRES/ ACHIARY","address":"48 AV DE CASTRES","latitude":43.600795440313355,"longitude":1.473660631896838},{"number":114,"name":"00114 - BD MONTPLAISIR - CANAL","address":"8 BD MONPLAISIR","latitude":43.59239101222708,"longitude":1.458007861390548},{"number":2,"name":"00002 - LAFAYETTE","address":"21 RUE LAFAYETTE","latitude":43.60485265221502,"longitude":1.445285876671779},{"number":199,"name":"00199 - DELTOUR - RIEUX","address":"4 BD DELTOUR","latitude":43.591528310013615,"longitude":1.470276283956405},{"number":223,"name":"00223 - ENAC","address":"AVENUE EDOUARD BELIN ANGLE AV ROCHE","latitude":43.565104300575406,"longitude":1.478340741030179},{"number":164,"name":"00164 - BEDOUCE SAOUZELONG","address":"AV ALBERT BEDOUCE","latitude":43.579725432743686,"longitude":1.460094426022393},{"number":51,"name":"00051 - DUPORTAL BRIENNE","address":"1 BD ARMAND DUPORTAL","latitude":43.605035688745794,"longitude":1.434843235786321},{"number":10,"name":"00010 - PLACE ESQUIROL","address":"15 PL ETIENNE ESQUIROL","latitude":43.6003776908545,"longitude":1.44544233356215},{"number":35,"name":"00035 - PLACE JEANNE D'ARC","address":"1 RUE RAYMOND IV","latitude":43.60964,"longitude":1.4469},{"number":250,"name":"00250 - 11 NOVEMBRE","address":"RUE DU 11 NOVEMBRE","latitude":43.593097534292575,"longitude":1.414428635946386},{"number":45,"name":"00045 - OZENNE","address":"10 RUE THEODORE OZENNE","latitude":43.596327873693475,"longitude":1.447014394243565},{"number":83,"name":"00083 - SEJOURNE AMIDONNIERS","address":"2 AV PAUL SEJOURNE","latitude":43.6055917312578,"longitude":1.428253851896989},{"number":47,"name":"00047 - NAZARETH LANGUEDOC","address":"12 RUE DU LANGUEDOC","latitude":43.59546175758775,"longitude":1.445531445171338},{"number":231,"name":"00231 - NARBONNE MARFAING","address":"RANGUEIL / CL ROCHE","latitude":43.557243695153005,"longitude":1.465370657992508},{"number":44,"name":"00044 - PALAIS NIEL","address":"1 ALL FORAIN FRANCOIS VERDIER","latitude":43.59800264157314,"longitude":1.45174992410964},{"number":171,"name":"00171 - ROUTE D ALBI / CACTUS","address":"191 RTE D'ALBI","latitude":43.640897350426606,"longitude":1.466308391813157},{"number":162,"name":"00162 - PLACE D'ITALIE","address":"AV D' ITALIE","latitude":43.580276538637605,"longitude":1.45491780578712},{"number":138,"name":"00138 - BARRIERE DE BAYONNE","address":"3 BD JEAN BRUNHES","latitude":43.598196214598815,"longitude":1.41997369298729},{"number":216,"name":"00216 - ARGOULETS HOUDON","address":"3 RUE JEAN HOUDON","latitude":43.622829380921075,"longitude":1.474057401308612},{"number":194,"name":"00194 - LOMBEZ / HIPPODROME","address":"138 AV DE LOMBEZ","latitude":43.594206765269206,"longitude":1.410651114174017},{"number":98,"name":"00098 - PONT DES DEMOISELLES","address":"80 ALL DES DEMOISELLES","latitude":43.587677990128874,"longitude":1.459836309553229},{"number":263,"name":"00263 - LYCEE POLYVALENT","address":"87 AVENUE JEAN BAYLET ANGLE CHEMIN CEPIERES","latitude":43.58444,"longitude":1.39867},{"number":16,"name":"00016 - STRASBOURG BAYARD","address":"32 BD DE STRASBOURG","latitude":43.60793763027584,"longitude":1.446610770547085},{"number":169,"name":"00169 - ALBI  / JAFFARY","address":"65 RTE D'ALBI","latitude":43.63124672931264,"longitude":1.462248097516892},{"number":39,"name":"00039 - PLACE DAMLOUP","address":"9 PL DE DAMLOUP","latitude":43.60583232118379,"longitude":1.452939708828422},{"number":201,"name":"00201 - POTEZ -ST EXUPERY","address":"256 AV ANTOINE DE ST EXUPERY","latitude":43.57965532664315,"longitude":1.48049587613679},{"number":198,"name":"00198 - LAFILAIRE - DELTOUR","address":"FACE 25 CHEMIN LAFILAIRE","latitude":43.59622771557735,"longitude":1.473457600659471},{"number":101,"name":"00101 - CAPT PORT ST SAUVEUR","address":"5 PORT SAINT SAUVEUR","latitude":43.59426485044087,"longitude":1.456321836591291},{"number":258,"name":"00258 - CAMBARD","address":"Boulevard Atlanta / Cambard","latitude":43.62957,"longitude":1.47643},{"number":56,"name":"00056 - SAINT SERNIN  MERLY","address":"1 RUE MERLY","latitude":43.609029818757634,"longitude":1.442808436675486},{"number":159,"name":"00159 - U.R.S.S DEVIC","address":"96 AV JULES JULIEN","latitude":43.5785038852904,"longitude":1.450284083376377},{"number":72,"name":"00072 - FITTE CUGNAUX","address":"23 ALL CHARLES DE FITTE","latitude":43.59504949175626,"longitude":1.432688307877285},{"number":146,"name":"00146 - SANG DE SERP - DAGNAUX","address":"57 CHEMIN DU SANG DE SERP - 31200 TOULOUSE","latitude":43.6154182104443,"longitude":1.4284933309335},{"number":261,"name":"00261 - VAN DYCK - LAUNAGUET","address":"Devant le N°6 rue Van Dyck avant angle rue Raphael - 31000 TOULOUSE","latitude":43.64066,"longitude":1.4401},{"number":151,"name":"00151 - CURIE - NEGRENEYS","address":"27 BD PIERRE ET MARIE CURIE","latitude":43.62459108857192,"longitude":1.443059611732516},{"number":238,"name":"00238 - HERBETTES / BUTTE","address":"AVENUE DES HERBETTES","latitude":43.579425835630786,"longitude":1.473118127213999},{"number":80,"name":"00080 - FITTE VARSI","address":"89B ALL CHARLES DE FITTE","latitude":43.59970386767416,"longitude":1.429275168509917},{"number":57,"name":"00057 - MERLY ARCOLE","address":"15 RUE MERLY","latitude":43.610488427425665,"longitude":1.4431072280246},{"number":269,"name":"00269 - PLACE SAUVEGRAIN","address":"Place Sauvegrain - angle avenue de Lardenne","latitude":43.58996,"longitude":1.37764},{"number":58,"name":"00058 - CONCORDE ARCOLE","address":"4 RUE DE LA CONCORDE","latitude":43.6106186453129,"longitude":1.443637125697445},{"number":272,"name":"00272 - ANDRE VASSEUR","address":"Boulevard Atlanta / après angle rue vasseur - 31000 TOULOUSE","latitude":43.63539,"longitude":1.47297},{"number":95,"name":"00095 - THEATRE GARONNE","address":"4 AVENUE DU CHÂTEAU D'EAU","latitude":43.602528105503815,"longitude":1.425222752953333},{"number":222,"name":"00222 - CAMBOU / ROCHE","address":"AVENUE DU COLONEL ROCHE","latitude":43.5628140764194,"longitude":1.47517386253435},{"number":92,"name":"00092 - CHALETS","address":"31 RUE DES CHALETS","latitude":43.61325027179293,"longitude":1.441220679302088},{"number":140,"name":"00140 - EMILE MALE","address":"PLACE EMILE MALE","latitude":43.59175,"longitude":1.41868},{"number":4,"name":"00004 - STE URSULE","address":"15 RUE SAINTE URSULE","latitude":43.60233609279122,"longitude":1.442047437838665},{"number":136,"name":"00136 - FONTAINES","address":"RUE DES FONTAINES","latitude":43.602050919601446,"longitude":1.414531359571464},{"number":176,"name":"00176 - GENERAL COMPANS","address":"1 RUE DU GENERAL COMPANS","latitude":43.606790468455905,"longitude":1.458008846441328},{"number":142,"name":"00142 - SEVERAC","address":"BD DEODAT DE SEVERAC","latitude":43.58807,"longitude":1.42438},{"number":237,"name":"00237 - CNRS","address":"AVENUE EDOUARD BELIN FACE CNRS","latitude":43.56361464501064,"longitude":1.479772209704475},{"number":28,"name":"00028 - PLACE SAINT PIERRE","address":"6 place saint pierre","latitude":43.6034370674356,"longitude":1.43608066156889},{"number":182,"name":"00182 - CHAUBET","address":"AV JEAN CHAUBET","latitude":43.60593083247726,"longitude":1.481957162051808},{"number":206,"name":"00206 - LEYGUE/ RIEUX","address":"20 AV ARMAND LEYGUE","latitude":43.594341505924845,"longitude":1.464668419108617},{"number":127,"name":"00127 - BEGUE - DEMOISELLES","address":"1 RUE BEGUE","latitude":43.589803552331645,"longitude":1.455945448109943},{"number":279,"name":"00279 - GUY ESPAGNO","address":"229 AVENUE DE CASSELARDIT CROISEMENT ESPAGNO / CASSELARDIT 31000 TOULOUSE","latitude":43.61354,"longitude":1.40142},{"number":88,"name":"00088 - DUPORTAL LASCROSSES","address":"17T BD LASCROSSES","latitude":43.610250914040755,"longitude":1.435070094381549},{"number":251,"name":"00251 - BLUM / JOUHAUX","address":"26 AVENUE LEON BLUM ANGLE RUE LEON JOUHAUX","latitude":43.614208387732,"longitude":1.4616307898919},{"number":226,"name":"00226 - FONTAINES /CASSELARDIT","address":"292 RUE DES FONTAINES","latitude":43.60419040838992,"longitude":1.407211289929025},{"number":91,"name":"00091 - ARCOLE BALANCE","address":"48 BD D ARCOLE","latitude":43.611584087589904,"longitude":1.439737579879722},{"number":122,"name":"00122 - PASSERELLE HAEDENS","address":"57 BD DE L EMBOUCHURE","latitude":43.613472358330974,"longitude":1.430120187266013},{"number":185,"name":"00185 - ROUBICHOU ARLES","address":"30 RUE ROUBICHOU","latitude":43.62704846650827,"longitude":1.465517338373819},{"number":27,"name":"00027 - QUAI DE TOUNIS","address":"QUAI DE TOUNIS","latitude":43.59938372814817,"longitude":1.440461106405702},{"number":220,"name":"00220 - TABAR /UNIVERSITE","address":"3 RUE DE L'UNIVERSITE","latitude":43.574612132702526,"longitude":1.40230245215212},{"number":209,"name":"00209 - BAROUX/ DARASSE","address":"4 AV LUCIEN BAROUX","latitude":43.589466982143435,"longitude":1.478914286004687},{"number":78,"name":"00078 - PLACE INT ST CYP. DARRE","address":"14 PL INTERIEURE ST CYPRIEN","latitude":43.59812186858788,"longitude":1.431415230750123},{"number":26,"name":"00026 - DALBADE - DE GORSSE","address":"9 RUE HENRY DE GORSSE","latitude":43.59804753924319,"longitude":1.443005133993703},{"number":230,"name":"00230 - RANGUEIL TRIPODE B","address":"141 AV DE RANGUEIL","latitude":43.567221153708445,"longitude":1.467678323560475},{"number":149,"name":"00149 - RAISIN MINIMES","address":"CH DU RAISIN","latitude":43.615368584913504,"longitude":1.448486709552681},{"number":59,"name":"00059 - CONCORDE","address":"61 RUE DE LA CONCORDE","latitude":43.613590372531775,"longitude":1.446485498451865},{"number":42,"name":"00042 - DAURIAC ESCANDE","address":"3 BD PR LEOPOLD ESCANDE","latitude":43.601588174955744,"longitude":1.456048100267833},{"number":107,"name":"00107 - SEBASTOPOL","address":"1 RUE DE SEBASTOPOL","latitude":43.609753361824794,"longitude":1.430389555237135},{"number":246,"name":"00246 - WAGNER / JEAN BRUNHES","address":"29 BOULEVARD RICHARD WAGNER ANG BD JEAN BRUNHES","latitude":43.60390532418828,"longitude":1.420141760360439},{"number":219,"name":"00219 - PUCCINI/ BLAGNAC","address":"35 RUE PUCCINI","latitude":43.614589794633694,"longitude":1.411359591750251},{"number":163,"name":"00163 - BEDOUCE / MIDI","address":"115 AV ALBERT BEDOUCE","latitude":43.581459211587536,"longitude":1.462194464667426},{"number":99,"name":"00099 - REMPART ST ETIENNE","address":"7 RUE DU REMPART ST ETIENNE","latitude":43.60082502483391,"longitude":1.450654849861206},{"number":267,"name":"00267 - GONIN","address":"RUE GONIN ANGLE GENIN 31000 TOULOUSE","latitude":43.57452,"longitude":1.48278},{"number":113,"name":"00113 - MUSEUM LAMARCK","address":"FACE 58 RUE DUMERIL","latitude":43.592355124495455,"longitude":1.449215732146181},{"number":133,"name":"00133 - MARCHE AUX COCHONS","address":"71 AV DES MINIMES","latitude":43.620735968782895,"longitude":1.435597311467436},{"number":148,"name":"00148 - COLLIGNON","address":"5 AV DE COLLIGNON","latitude":43.61692696530316,"longitude":1.444528167445985},{"number":283,"name":"283 - PLACE MICOULEAU","address":"Place Micouleau, devant rue de chamois 31000 Toulouse","latitude":43.63805,"longitude":1.44442},{"number":167,"name":"00167 - LAPUJADE-FLANDRES","address":"RUE LAPUJADE ANGLE RUE DES FLANDRES","latitude":43.62409340165932,"longitude":1.454698517821249},{"number":205,"name":"00205 - COTTAGE/ RIEUX","address":"58 AV DES COTTAGES","latitude":43.58588613821349,"longitude":1.47508540800772},{"number":265,"name":"00265 - PASSAGE BORDELONGUE","address":"Face N°251 route de Seysses","latitude":43.56793,"longitude":1.41325},{"number":116,"name":"00116 - ST MICHEL NOTRE DAME","address":"50 GRANDE RUE ST MICHEL","latitude":43.588359791103294,"longitude":1.446483165667178},{"number":86,"name":"00086 - HERACLES - BEARNAIS","address":"23 RUE DU BEARNAIS","latitude":43.60802027853654,"longitude":1.428450231443648},{"number":66,"name":"00066 - JARDIN ROYAL","address":"HUIT MAI 1945","latitude":43.596478222107635,"longitude":1.451093339873272},{"number":34,"name":"00034 - SAINT LAZARE","address":"2 PETITE RUE SAINT LAZARE","latitude":43.609650036285025,"longitude":1.446076879873296},{"number":240,"name":"00240 - RTE DE BLAGNAC / JOB","address":"FACE 103 BIS ROUTE DE BLAGNAC","latitude":43.6172496485261,"longitude":1.408124460028565},{"number":119,"name":"00119 - CHAPOU","address":"129 ALL DE BRIENNE","latitude":43.609967343094006,"longitude":1.419524853208122},{"number":275,"name":"00275 - PLACE DES PRADETTES","address":"Place des Pradettes / rue Arthur Huc","latitude":43.58171,"longitude":1.38887},{"number":282,"name":"282 - RICHARD WAGNER","address":"BD RICHARD WAGNER / ANGLE A.VIVALDI 31000 TOULOUSE","latitude":43.60614,"longitude":1.41476},{"number":160,"name":"00160 - THEATRE JULES JULIEN","address":"21 AV DES ECOLES JULES JULIEN","latitude":43.573924940202886,"longitude":1.451999386383253},{"number":18,"name":"00018 - STRASBOURG JEAN JAURES","address":"4 BD DE STRASBOURG","latitude":43.60629718770727,"longitude":1.448244408330328},{"number":130,"name":"00130 - BILLIERES - PATTE D OIE","address":"66 TER AV ETIENNE BILLIERES","latitude":43.59679331319425,"longitude":1.424139385785053},{"number":12,"name":"00012 - PARGAMINIERES","address":"66 RUE PARGAMINIERES","latitude":43.60459,"longitude":1.44002},{"number":117,"name":"00117 - BILLIERES -POSTE","address":"39 AVENUE ETIENNE BILLIERES","latitude":43.596852956620715,"longitude":1.425882273289917},{"number":43,"name":"00043 - DUPUY","address":"14 PL DOMINIQUE MARTIN DUPUY","latitude":43.599990271041186,"longitude":1.454093824286969},{"number":232,"name":"00232 - NARBONNE/ MIROUSE","address":"64 RTE DE NARBONNE","latitude":43.569437251134566,"longitude":1.456086445970436},{"number":61,"name":"00061 - BONREPOS","address":"8T BD DE BONREPOS","latitude":43.61071810091073,"longitude":1.452455826571967},{"number":211,"name":"00211 - LE DORMEUR/ LA TERRASSE","address":"9 RUE LE DORMEUR","latitude":43.58350615923425,"longitude":1.48781984362323},{"number":165,"name":"00165 - PLACE DES AVIONS","address":"33 AVENUE DES AVIONS","latitude":43.57686792022356,"longitude":1.460187742067113},{"number":278,"name":"00278 - ARENES ROMAINE","address":"AVENUE DES ARENES ROMAINES / GUY ESPAGNO DANS ROND POINT 31000 TOULOUSE","latitude":43.6142,"longitude":1.39709},{"number":270,"name":"00270 - SILVIO TRENTIN","address":"Rue Jules Verne angle Boulevard Silvio Trentin - 31000 TOULOUSE","latitude":43.62413,"longitude":1.42778},{"number":103,"name":"00103 - ST MICHEL ST CATHERINE","address":"139 GRANDE RUE ST MICHEL","latitude":43.590605082277605,"longitude":1.445174430937582},{"number":17,"name":"00017 - STRASBOURG SARDANE","address":"7 BD DE STRASBOURG","latitude":43.60610692889793,"longitude":1.448061825303155},{"number":46,"name":"00046 - PLACE DES CARMES","address":"1 PL DES CARMES","latitude":43.597401475499026,"longitude":1.445315649331453},{"number":218,"name":"00218 - AMOUROUX /STE AUGUSTINE","address":"24 BIS CHE AMOUROUX","latitude":43.627603587351345,"longitude":1.461907953641387},{"number":203,"name":"00203 - ST EX. - PETIT PRINCE","address":"2 AV ANTOINE DE ST EXUPERY","latitude":43.5834192540153,"longitude":1.470077844843929},{"number":132,"name":"00132 - MINIMES BILARD","address":"101 AVENUES DES MINIMES","latitude":43.62293779541603,"longitude":1.434473692188769},{"number":145,"name":"00145 - GOUNOD - GARROS","address":"29 RUE ROLAND GARROS","latitude":43.61395913175851,"longitude":1.424941224096277},{"number":5,"name":"00005 - LEDUC","address":"5 RUE LEDUC","latitude":43.61184,"longitude":1.45752},{"number":110,"name":"00110 - CABANEL - SERRES","address":"16 RUE ALEXANDRE CABANEL","latitude":43.61375517689823,"longitude":1.438157046235524},{"number":125,"name":"00125 - BARRIÈRE DE PARIS","address":"BARRIÈRE DE PARIS","latitude":43.6269176821576,"longitude":1.434225150757254},{"number":63,"name":"00063 - PISCINE LEO LAGRANGE","address":"54 RUE DES SEPT TROUBADOURS","latitude":43.607433487401345,"longitude":1.454189017923435},{"number":177,"name":"00177 - BAILLAUD BRUNAUD","address":"64 RUE BAILLAUD","latitude":43.61743867816197,"longitude":1.46539185105244},{"number":73,"name":"00073 - FITTE TEINTURIERS","address":"40 ALL CHARLES DE FITTE","latitude":43.59628476386365,"longitude":1.432075106068745},{"number":200,"name":"00200 - PLACE DE L'ORMEAU","address":"FACE 345 AV JEAN RIEUX","latitude":43.57906922965151,"longitude":1.483669775054849},{"number":14,"name":"00014 - PERIGORD","address":"26 RUE DE PERIGORD","latitude":43.60735205357881,"longitude":1.444269620551324},{"number":181,"name":"00181 - PLANA GARNIER","address":"27 Avenue Louis PLANA","latitude":43.610549420565,"longitude":1.4795004816774},{"number":50,"name":"00050 - GARONNETTE","address":"1 AV MAURICE HAURIOU","latitude":43.594569737633854,"longitude":1.440920059367141},{"number":20,"name":"00020 - CARNOT TROIS JOURNEES","address":"69 BD LAZARE CARNOT","latitude":43.604717604204446,"longitude":1.449629619920856},{"number":155,"name":"00155 - RECOLLETS","address":"34 BD DES RECOLLETS","latitude":43.58386908499996,"longitude":1.443635078857447},{"number":264,"name":"00264 - LAFOURGUETTE","address":"Place des Glières","latitude":43.56507,"longitude":1.41028},{"number":256,"name":"00256 - PLACE DE LA RONTONDE","address":"FACE 175 ROUTE DE CASTRES ANGLE RUE CARCASSONNE","latitude":43.59666,"longitude":1.4842},{"number":69,"name":"00069 - FEUGA","address":"11 ALL PAUL FEUGA","latitude":43.59253,"longitude":1.4429},{"number":157,"name":"00157 - U.R.S.S  PEYROUSET","address":"16 AV DE L'U.R.S.S","latitude":43.582831686768735,"longitude":1.448634234326797},{"number":189,"name":"00189 - MURET BOUTINON","address":"44 AVENUE DE MURET","latitude":43.581352282638655,"longitude":1.425325828280708}]