[{"number":2010,"name":"02010 - CONFLUENCE DARSE","address":"ANGLE ALEE ANDRE MURE ET QUAI ANTOINE RIBOUD","latitude":45.743317,"longitude":4.815747},{"number":5015,"name":"5015 - FULCHIRON","address":"Devant le n°41 rue de la Quarantaine","latitude":45.75197,"longitude":4.821662},{"number":6004,"name":"6004 - FOCH (FAR)","address":"Angle rue Vendôme","latitude":45.768896,"longitude":4.844845},{"number":7035,"name":"7035 - MARSEILLE / UNIVERSITÉ (FAR)","address":"Angle rue de Marseille","latitude":45.750945,"longitude":4.83927},{"number":10120,"name":"10120 - SALENGRO / DESCARTES","address":"41 AV. ROGER SALENGRO (VILLEURBANNE)","latitude":45.7759505002626,"longitude":4.87143421497628},{"number":5016,"name":"5016 - MAIRIE DU 5°","address":"Devant la mairie du 5°","latitude":45.757581,"longitude":4.801023},{"number":9013,"name":"9013 - QUAI PAUL SÉDALLIAN","address":"Angle rue de la Navigation","latitude":45.787522,"longitude":4.814418},{"number":10028,"name":"10028 - ECOLE DE MUSIQUE","address":"Cours de la République/Angle Anatole France","latitude":45.767467,"longitude":4.874032},{"number":6041,"name":"6041 - CITÉ INTERNATIONALE / TÊTE D'OR NORD","address":"50 QUAI ACHILLE LIGNON","latitude":45.78458,"longitude":4.859664},{"number":10011,"name":"10011 - GRATTE CIEL","address":"174 COURS EMILE ZOLA","latitude":45.769226,"longitude":4.880491},{"number":10005,"name":"10005 - BOULEVARD DU 11 NOVEMBRE","address":"Face Entrée du Parc de la Tête d'Or","latitude":45.779702,"longitude":4.860029},{"number":4012,"name":"4012 - PLACE ADRIEN GODIEN","address":"Angle montée de la Boucle","latitude":45.779186,"longitude":4.840917},{"number":3009,"name":"3009 - MUSEE AFRICAIN","address":"133 COURS GAMBETTA","latitude":45.750251,"longitude":4.857919},{"number":10122,"name":"10122 - VERDUN / DESGRAND","address":"17 RUE DE VERDUN (VILLEURBANNE)","latitude":45.784023,"longitude":4.897102},{"number":7038,"name":"7038 - PLACE STALINGRAD","address":"Angle Rue de la Guillotiere","latitude":45.749622,"longitude":4.85299},{"number":10091,"name":"10091 - CHÂTEAU GAILLARD / FORT","address":"28 RUE DU CHÂTEAU GAILLARD (VILLEURBANNE)","latitude":45.774754,"longitude":4.887977},{"number":4025,"name":"4025 - CHAZIÈRE","address":"29 RUE CHAZIERE","latitude":45.775425,"longitude":4.817888},{"number":10113,"name":"10113 - GARE DE VILLEURBANNE","address":"49 AV. GENERAL LECLERC (VILLEURBANNE)","latitude":45.755768,"longitude":4.891542},{"number":4023,"name":"4023 - PONT MAZARYK","address":"Face au 45 quai Gillet","latitude":45.777961,"longitude":4.810523},{"number":3066,"name":"3066 - KIMMERLING / FAURE","address":"139 AV. FELIX FAURE","latitude":45.754296,"longitude":4.86359},{"number":10111,"name":"10111 - CHARLES HERNU","address":"106 COURS VITTON (LYON 6ème)","latitude":45.770309,"longitude":4.86196},{"number":5040,"name":"5040 - PLACE CRÉPU","address":"7 PLACE BENOIT CREPU","latitude":45.757847,"longitude":4.826103},{"number":7008,"name":"7008 - JEAN JAURÈS / GUILLOTIÈRE","address":"Avenue Jean Jaurès - Angle rue de la Guillotière","latitude":45.75251,"longitude":4.846278},{"number":7024,"name":"7024 - BANCEL / CHEVREUL","address":"6 RUE BANCEL","latitude":45.748504,"longitude":4.840505},{"number":2023,"name":"2023 -  HUGO / STE HÉLÈNE","address":"Entre rue Victor Hugo et rue d'Auvergne","latitude":45.754688,"longitude":4.829927},{"number":8029,"name":"8029 - ETATS UNIS LEVIGNE","address":"81 BVD DES Etats-Unis","latitude":45.732366,"longitude":4.865101},{"number":4004,"name":"4004 - HÉNON","address":"Angle rue Hénon","latitude":45.779786,"longitude":4.827635},{"number":8061,"name":"8061 - STADE VUILLERMET","address":"164 AV. PAUL SANTY","latitude":45.725403,"longitude":4.881292},{"number":1023,"name":"1023 - CROIX ROUSSE / PERFETTI","address":"16 BVD DE LA CROIX-ROUSSE","latitude":45.772229,"longitude":4.819389},{"number":7003,"name":"7003 - GAMBETTA / GARIBALDI (FAR)","address":"Cours Gambette - Prolongement rue Rachais","latitude":45.751827,"longitude":4.8526},{"number":7030,"name":"7030 - QUARTIER GENERAL FRERE","address":"33 Boulevard Yves Farge 69007 Lyon","latitude":45.743163,"longitude":4.834165},{"number":6042,"name":"6042 - CITÉ INTERNATIONALE - RÉSIDENCE HÔTELIÈRE","address":"devant la résidence hôtelière à l'ouest de la place publique","latitude":45.784812,"longitude":4.856432},{"number":2013,"name":"2013 - CÉLESTINS","address":"Côté nord de la place, vers l'ascenseur","latitude":45.759932,"longitude":4.832111},{"number":3086,"name":"3086 - FEUILLAT / LACASSAGNE","address":"76 AV. LACASSAGNE","latitude":45.749563,"longitude":4.875934},{"number":8025,"name":"8025 - DUMONT / JOUVET","address":"12 RUE SANTOS DUMONT","latitude":45.744447,"longitude":4.860889},{"number":8056,"name":"8056 - DELORE / AUDIBERT ET LAVIROTTE","address":"69 RUE AUDIBERT ET LAVIROTTE","latitude":45.73586,"longitude":4.856888},{"number":10119,"name":"10119 - VILLEURBANNE SAINT JEAN","address":"2 RUE DES ACACIAS VILLEURBANNE","latitude":45.780422,"longitude":4.904505},{"number":7053,"name":"7053 - JAURÈS / THIBAUDIÈRE","address":"26 RUE DE LA THIBAUDIERE","latitude":45.750344,"longitude":4.845048},{"number":3012,"name":"3012 - PLACE DU CHÂTEAU","address":"A côté de l'église","latitude":45.749565,"longitude":4.887311},{"number":4009,"name":"4009 - JACQUARD / DENFERT-ROCHEREAU","address":"Rue Denfert-Rochereau / Angle rue Jacquart","latitude":45.77591,"longitude":4.825394},{"number":10089,"name":"10089 - COLIN / PERRONCEL","address":"Rue Colin - Angle rue Alexis Perroncel","latitude":45.774581,"longitude":4.87406},{"number":1031,"name":"1031 - PLACE DE LA PAIX","address":"Place de la Paix - En face de La Poste","latitude":45.768023,"longitude":4.831733},{"number":3037,"name":"3037 - PAUL BERT / GARIBALDI","address":"Rue Paul Bert","latitude":45.757112,"longitude":4.853405},{"number":8035,"name":"8035 - SANS SOUCI","address":"54 COURS ALBERT THOMAS","latitude":45.747251,"longitude":4.865386},{"number":5045,"name":"5045 - VALDO / RIVET","address":"64 RUE JEUNET","latitude":45.750205,"longitude":4.792193},{"number":6035,"name":"6035 - CITÉ INTERNATIONALE","address":"Face parvis du palais des congrès","latitude":45.785456,"longitude":4.854085},{"number":1036,"name":"1036 - AVEYRON","address":"158 BVD DE LA CROIX-ROUSSE","latitude":45.774366,"longitude":4.832716},{"number":6022,"name":"6022- PLACE MARÉCHAL LYAUTEY","address":"Pierre Corneille/cours Franklin Roosevelt","latitude":45.7694,"longitude":4.842584},{"number":9020,"name":"9020 - BOURBONNAIS","address":"Angle rue Horand / rue Masset","latitude":45.773468,"longitude":4.800286},{"number":2016,"name":"2016 - PLACE REGAUD","address":"Angle rue Tupin / rue Herriot","latitude":45.763065,"longitude":4.83425},{"number":3080,"name":"3080 - PART-DIEU / VILLETTE (FAR)","address":"55 RUE DE LA VILLETTE","latitude":45.760042,"longitude":4.861734},{"number":5029,"name":"5029 - PLACE GERSON","address":"Prox. Quai Pierre Scize","latitude":45.767057,"longitude":4.827014},{"number":2004,"name":"2004 - PERRACHE / CARNOT","address":"16 PLACE CARNOT","latitude":45.750116,"longitude":4.82801},{"number":10079,"name":"10079 - ANATOLE FRANCE / BARBUSSE","address":"Rue Anatole France/Angle av Barbusse","latitude":45.768127,"longitude":4.879096},{"number":7009,"name":"7009 - JEAN JAURÈS","address":"174–180 Avenue Jean Jaurès 69007 Lyon","latitude":45.737503,"longitude":4.837484},{"number":7045,"name":"7045 - PARC DES BERGES","address":"40 AV. LECLERC","latitude":45.737745,"longitude":4.824495},{"number":3101,"name":"3101 - PATINOIRE BARABAN","address":"55 RUE DE BARABAN","latitude":45.762055,"longitude":4.868486},{"number":4021,"name":"4021 - TABAREAU","address":"Angle Bvd de la Croix-Rousse","latitude":45.774061,"longitude":4.82516},{"number":3103,"name":"3103 - PLACE DANTON","address":"3 PLACE DANTON","latitude":45.7548502313005,"longitude":4.85748756866509},{"number":6031,"name":"6031 - LAFAYETTE/CORNEILLE","address":"Angle cours Lafayette","latitude":45.763717,"longitude":4.843791},{"number":10018,"name":"10018 - TOLSTOÏ / FLORIAN","address":"Rue Florian/Angle Cours Tolstoï","latitude":45.761801,"longitude":4.880735},{"number":9049,"name":"9049 - SERGENT BERTHET / GORGE DE LOUP","address":"23 RUE GORGE DE LOUP","latitude":45.770136,"longitude":4.80516},{"number":7023,"name":"7023 - BERTHELOT / ROUTE DE VIENNE","address":"Route de Vienne - Angle avenue Berthelot","latitude":45.742639,"longitude":4.850538},{"number":6044,"name":"6044 - CHARMETTES / BELLECOMBE","address":"23 RUE DE LA VIABERT","latitude":45.766372,"longitude":4.865058},{"number":3008,"name":"3008 - INSTITUT LUMIERE","address":"105 COURS ALBERT THOMAS","latitude":45.745828,"longitude":4.870631},{"number":8042,"name":"8042 - FRANCIS DE PRESSENSÉ","address":"73 RUE CAZENEUVE","latitude":45.731361,"longitude":4.860139},{"number":9044,"name":"9044 - MASSET / SAINT PIERRE DE VAISE","address":"20 AV. JOANNES MASSET","latitude":45.770508,"longitude":4.800869},{"number":10075,"name":"10075 - GABRIEL PÉRI","address":"Angle cours André Philip","latitude":45.772277,"longitude":4.865774},{"number":4006,"name":"4006 - PHILIPPE DE LASSALLE","address":"Angle rue Anselme, face à l'IUFM","latitude":45.773358,"longitude":4.821234},{"number":2036,"name":"2036 - PLACE GOURJU","address":"11 PLACE ANTONIN GOURJU","latitude":45.759494,"longitude":4.830161},{"number":6002,"name":"6002 - PORTE DES ENFANTS DU RHÔNE (FAR)","address":"Le long des grilles, côté ouest de la porte","latitude":45.777521,"longitude":4.844922},{"number":6032,"name":"6032 - PRÉFECTURE / SARRAIL","address":"Angle rue Vauban","latitude":45.764821,"longitude":4.841567},{"number":10016,"name":"10016 - PLACE DE LA PAIX","address":"10 PLACE DE LA PAIX (VILLEURBANNE)","latitude":45.752074,"longitude":4.91466},{"number":7033,"name":"7033 - ST LUC / ST JOSEPH (FAR)","address":"Sur le quai haut","latitude":45.749431,"longitude":4.834816},{"number":7041,"name":"7041 - DOMER / CHEVREUL","address":"Rue Domer/angle rue Chevreul","latitude":45.746681,"longitude":4.844455},{"number":8008,"name":"8008 - BEAUVISAGE / PRESSENSÉ","address":"Rue du Professeur Beauvisage","latitude":45.727881,"longitude":4.86355},{"number":3071,"name":"3071 - BIOPARC","address":"angle ave Rockfeller / cours Eugénie face au Bioparc","latitude":45.740492,"longitude":4.888084},{"number":10014,"name":"10014 - GARE L. BONNEVAY","address":"64 AV. MARCEL CERDAN","latitude":45.765214,"longitude":4.909808},{"number":10004,"name":"10004 - TONKIN","address":"Rue Salvador Allende / Angle promenade du Lys","latitude":45.776217,"longitude":4.862636},{"number":1013,"name":"1013 - MARTINIÈRE","address":"Rue de la Martinière","latitude":45.768223,"longitude":4.827533},{"number":9010,"name":"9010 - PISCINE DE VAISE","address":"37 AV. SIDOINE APOLLINAIRE","latitude":45.771034,"longitude":4.79644},{"number":6028,"name":"6028 - RECAMMIER / TÊTE D'OR","address":"Angle rue Tête d'Or","latitude":45.764345,"longitude":4.853492},{"number":10034,"name":"10034 - DOCTEUR DAMIDOT","address":"Devant la MJC","latitude":45.761825,"longitude":4.886156},{"number":3058,"name":"3058 - PLACE DU LAC","address":"Face à la poste","latitude":45.758974,"longitude":4.853599},{"number":6045,"name":"6045 - BROTTEAUX / VAUBAN","address":"44 BVD DES BROTTEAUX","latitude":45.766284,"longitude":4.856848},{"number":5047,"name":"5047 - ALBÉRIC PONT","address":"2B RUE DR. ALBERIC PONT","latitude":45.753452,"longitude":4.804401},{"number":8053,"name":"8053 - LUMIERE / TROUILHET","address":"6 RUE ANTOINE LUMIERE","latitude":45.743569,"longitude":4.870083},{"number":9008,"name":"9008 - L'ILE BARBE","address":"3 QUAI PAUL SEDAILLAN","latitude":45.797415,"longitude":4.829038},{"number":4042,"name":"4042 - GREGORY COUPET","address":"94 RUE PHILIPPE DE LASALLE","latitude":45.781699,"longitude":4.820596},{"number":10053,"name":"10053 - ROSSELINI / 11 NOVEMBRE","address":"1 PLACE DE CROIX LUIZET","latitude":45.77939,"longitude":4.863068},{"number":10110,"name":"10110 - MÉMOIRE ET SOCIÉTÉ","address":"20 RUE VALENTIN HAUY (VILLEURBANNE)","latitude":45.75958,"longitude":4.882739},{"number":6021,"name":"6021- GARIBALDI","address":"Entre rue Crillon et rue Sully","latitude":45.770664,"longitude":4.849946},{"number":5053,"name":"5053 - SAINT JUST","address":"1 PLACE DE L'ABBE LARUE","latitude":45.75597,"longitude":4.818904},{"number":8058,"name":"8058 - LONGEFER / KRUGER","address":"10 RUE PDT P. KRUGER","latitude":45.738671,"longitude":4.878117},{"number":2037,"name":"2037 - PLACE DES ARCHIVES","address":"12 COURS CHARLEMAGNE","latitude":45.747956,"longitude":4.824898},{"number":2026,"name":"2026 - RÉPUBLIQUE / PAUFIQUE","address":"Angle rue de la République","latitude":45.759379,"longitude":4.835414},{"number":9003,"name":"9003 - PLACE VALMY","address":"Rue Roquette / angle rue de Bourgogne","latitude":45.775679,"longitude":4.805314},{"number":2038,"name":"2038 - REMPARTS D'AINAY","address":"16 RUE DES REMPARTS D'AINAY","latitude":45.753077,"longitude":4.829706},{"number":8054,"name":"8054 - MARTINIERE MONPLAISIR","address":"34 RUE ANTOINE LUMIERE","latitude":45.740865,"longitude":4.868244},{"number":7039,"name":"7039 - GUILLOTIÈRE / MADELEINE","address":"Angle rue de la Madeleine","latitude":45.751073,"longitude":4.848018},{"number":2012,"name":"2012 - GAILLETON","address":"3 PLACE GAILLETON","latitude":45.753455,"longitude":4.833367},{"number":7006,"name":"7006 - GERLAND","address":"Avenue Jean Jaurès - Au niveau du square Galtier","latitude":45.727494,"longitude":4.831145},{"number":8011,"name":"8011 - PLACE LEBRET","address":"Côté route de Vienne","latitude":45.735653,"longitude":4.853042},{"number":1006,"name":"1006- SUBSISTANCES","address":"12 QUAI ST VINCENT","latitude":45.76791,"longitude":4.819845},{"number":4002,"name":"4002 - MAIRIE DU 4°","address":"Devant la mairie du 4°","latitude":45.774193,"longitude":4.827743},{"number":4007,"name":"4007 - PLACE FLAMMARION","address":"Côté Rue Philippe de Lassalle","latitude":45.779332,"longitude":4.820259},{"number":10092,"name":"10092 - MONTGOLFIER / CHATEAU GAILLARD","address":"3 RUE DU CHAMP DE L'ORME (VILLEURBANNE)","latitude":45.771561,"longitude":4.890378},{"number":10024,"name":"10024 - MAISONS NEUVES","address":"Place des Maisons Neuves/Côté rue Jean Jaurès","latitude":45.7563424627814,"longitude":4.87833622546792},{"number":1034,"name":"1034 - CARMÉLITES","address":"30 MONTEE DES CARMELITES","latitude":45.770006,"longitude":4.829274},{"number":3013,"name":"3013 - PLACE ANTOINETTE","address":"Place Antoinette","latitude":45.753683,"longitude":4.889285},{"number":10008,"name":"10008 - SALENGRO / VAILLANT","address":"Rue Roger Salengro - Angle rue Vaillant","latitude":45.778385,"longitude":4.879673},{"number":3083,"name":"3083 - LES HALLES","address":"118 RUE MONCEY","latitude":45.761595,"longitude":4.850477},{"number":6024,"name":"6024 - TRONCHET / ANATOLE FRANCE","address":"Angle bvd Anatole France","latitude":45.770743,"longitude":4.856713},{"number":8006,"name":"8006 - PLACE DU 8 MAI 1945","address":"Rue Professeur Beauvisage/Angle bd des Etats-Unis","latitude":45.729771,"longitude":4.868157},{"number":9052,"name":"9052 - BALMONT","address":"360 BVD DE BALMONT","latitude":45.789194,"longitude":4.799308},{"number":12002,"name":"12002 - POUDRETTE LA SOIE","address":"Face au 2 rue de la Poudrette, Vaulx en Velin","latitude":45.76438,"longitude":4.919276},{"number":10012,"name":"10012 - ZOLA / FRANCE","address":"Rue de France/Angle Cours Emile Zola","latitude":45.767957,"longitude":4.887232},{"number":4022,"name":"4022 - PLACE DE LA CROIX-ROUSSE","address":"Prox. Grande rue de la Croix-Rousse","latitude":45.77608,"longitude":4.832543},{"number":10047,"name":"10047 - LHERMINIER/PRESSENSÉ","address":"Avenue du Cdt Lherminier/Angle rue F. de Pressensé","latitude":45.771143,"longitude":4.88504},{"number":10049,"name":"10049 - PRESSENSÉ","address":"Rue Francis de Pressensé/angle 8 mai 1945","latitude":45.769158,"longitude":4.89678},{"number":7021,"name":"7021- CHALLEMEL LACOUR / GERLAND","address":"176–180 Rue de Gerland 69007 Lyon","latitude":45.729791,"longitude":4.838138},{"number":3004,"name":"3004 - BOURSE DU TRAVAIL (FAR)","address":"Angle rue Moncey / Part-Dieu","latitude":45.759648,"longitude":4.848139},{"number":3016,"name":"3016 - LIBERTÉ / PART-DIEU (FAR)","address":"Angle rue de la Part-Dieu","latitude":45.759361,"longitude":4.842308},{"number":2003,"name":"2003 - PLACE AMPÈRE","address":"Angle Henry IV","latitude":45.753049,"longitude":4.828297},{"number":6003,"name":"6003 - AVENUE VERGUIN","address":"Devant l'entrée du parc","latitude":45.772846,"longitude":4.856274},{"number":8024,"name":"8024 - MERMOZ / MICHELET","address":"Angle av Michelet","latitude":45.733317,"longitude":4.878607},{"number":7007,"name":"7007 - FARGE / AYASSE","address":"Angle Bld Y. Farge / rue Commandant Ayasse","latitude":45.735741,"longitude":4.827725},{"number":8038,"name":"8038 - ALBERT THOMAS / VILLON","address":"Angle rue Villon","latitude":45.746691,"longitude":4.867501},{"number":10072,"name":"10072 - JACQUES BREL","address":"Rue Jacques Brel/angle rue Korel","latitude":45.774228,"longitude":4.864269},{"number":6020,"name":"6020 - MUSÉE GUIMET","address":"Angle rue Morellet","latitude":45.774526,"longitude":4.848443},{"number":12001,"name":"12001 - LA SOIE","address":"45 RUE DE LA POUDRETTE (VILLEURBANNE)","latitude":45.760908,"longitude":4.920569},{"number":10055,"name":"10055 - CONDORCET / GALLINE","address":"Avenue Galline/angle av. de Condorcet","latitude":45.776428,"longitude":4.866976},{"number":3094,"name":"3094 - VILLETTE","address":"74 RUE DE LA VILLETTE","latitude":45.757808,"longitude":4.861512},{"number":5044,"name":"5044 - CHAMPVERT","address":"87 RUE DOCTEUR EDMOND LOCARD","latitude":45.7598,"longitude":4.796561},{"number":10006,"name":"10006 - CHARPENNES (FAR)","address":"Place Charles Hernu / côté sud","latitude":45.770225,"longitude":4.863102},{"number":9011,"name":"9011 - CONSERVATOIRE","address":"Quai Chauveau / angle Pont Koenig","latitude":45.769803,"longitude":4.812681},{"number":6012,"name":"6012 - PLACE PUVIS DE CHAVANNES","address":"Angle rue Vendôme","latitude":45.771794,"longitude":4.84459},{"number":8009,"name":"8009 - JEAN XXIII / MERMOZ","address":"Boulevard Jean XXIII - Angle de la rue Mermoz","latitude":45.73648,"longitude":4.869789},{"number":3036,"name":"03036 - FELIX FAURE / VIVIER MERLE","address":"AVENUE FELIX FAURE ANGLE VIVIER MERLE. 10M AVANT VIVIER MERLE EN DIRECTION DU RHONE","latitude":45.75381,"longitude":4.859795},{"number":10073,"name":"10073 - INSTITUT D'ART CONTEMPORAIN","address":"Rue Docteur Dolard / Angle rue 4 Septembre","latitude":45.761468,"longitude":4.872466},{"number":2035,"name":"2035 - CHILDEBERT / RIVIÈRE","address":"","latitude":45.759842,"longitude":4.835776},{"number":9014,"name":"9014 - QUAI DU COMMERCE","address":"Angle rue Emile Duport","latitude":45.784334,"longitude":4.812215},{"number":3097,"name":"3097 - AUGAGNEUR / FOSSE AUX OURS (FAR)","address":"28 QUAI VICTOR AUGAGNEUR","latitude":45.757192,"longitude":4.840495},{"number":9022,"name":"9022 - RUE MASARYK / SAINT CYR","address":"Angle rue Chinard/rue St Cyr","latitude":45.778639,"longitude":4.8071},{"number":10112,"name":"10112 - PLACE DE LA RECONNAISSANCE","address":"105 ROUTE DE GENAS (VILLEURBANNE)","latitude":45.754415,"longitude":4.885249},{"number":4024,"name":"04024 - LYON METROPOLE","address":"FACE AU 81 QUAI JOSEPH GILLET","latitude":45.788204,"longitude":4.818572},{"number":8041,"name":"8041 - ETATS UNIS / VIVIANI","address":"170 Boulevard des Etats-Unis, Angle Avenue Viviani, direction Venissieux","latitude":45.724775,"longitude":4.870745},{"number":2008,"name":"2008 - PLACE ANTONIN PONCET (FAR)","address":"Côté rue des Marroniers","latitude":45.756775,"longitude":4.833917},{"number":1005,"name":"1005 - MEISSONNIER","address":"Place Meissonier - Angle Sud-Est de la place","latitude":45.766073,"longitude":4.832849},{"number":6040,"name":"6040 - LES HALLES","address":"71 COURS LAFAYETTE","latitude":45.764013,"longitude":4.849933},{"number":2022,"name":"2022 - PLACE CARNOT","address":"Angle rue Plessier","latitude":45.751233,"longitude":4.82688},{"number":4014,"name":"4014 - PHILIPPE DE LASSALLE / PILLEMENT","address":"Angle rue Pillement","latitude":45.777431,"longitude":4.820526},{"number":9029,"name":"9029 - SAINT PIERRE DE VAISE","address":"Place Vanderpol/Angle St Pierre de Vaise","latitude":45.773125,"longitude":4.807831},{"number":3099,"name":"3099 - PLACE SAINTE ANNE","address":"10 PLACE SAINTE ANNE","latitude":45.757042,"longitude":4.86532},{"number":8001,"name":"8001 - UNIVERSITÉ LYON III (FAR)","address":"Devant entrée principale de l'université","latitude":45.748535,"longitude":4.861533},{"number":3005,"name":"3005 - SAXE-GAMBETTA (FAR)","address":"Place Victor Basch","latitude":45.75377,"longitude":4.848043},{"number":10121,"name":"10121 - PARC DU CENTRE","address":"ANGLE RUE BILLON / RUE F. DE PRESSENSE","latitude":45.771912,"longitude":4.87907},{"number":10058,"name":"10058 - MÉTRO FLACHET","address":"274 COURS EMILE ZOLA (VILLEURBANNE)","latitude":45.767051,"longitude":4.892467},{"number":8010,"name":"8010 - PLACE MENDÈS FRANCE","address":"95 AV. DE L'EUROPE","latitude":45.740052,"longitude":4.85941},{"number":3067,"name":"3067 - HACHETTE","address":"6 RUE JEAN RENOIR","latitude":45.752907,"longitude":4.863923},{"number":7055,"name":"7055 - SERVANT / JABOULAY","address":"23 RUE RENAN","latitude":45.746779,"longitude":4.842051},{"number":5002,"name":"5002 - PLACE DES COMPAGNONS DE LA CHANSON","address":"Angle rue des Aqueducs","latitude":45.756535,"longitude":4.796616},{"number":10084,"name":"10084 - DOUA / AVENUE DES ARTS","address":"84 avenue des Arts","latitude":45.783533,"longitude":4.871294},{"number":9042,"name":"9042 - VAISE DOCKS","address":"92 RUE DU BOURBONNAIS","latitude":45.786533,"longitude":4.811446},{"number":7013,"name":"7013 - HALLE TONY GARNIER","address":"93–131 Avenue Tony Garnier 69007 Lyon","latitude":45.730786,"longitude":4.823733},{"number":11003,"name":"11003 - LA ROCHETTE","address":"Quai Gillet au  niveau de la place de la Rochette. Caluire et Cuire.","latitude":45.791748,"longitude":4.823595},{"number":3039,"name":"3039 - PLACE BIR-HAKEIM","address":"Au niveau de la rue Duvivier","latitude":45.752553,"longitude":4.855756},{"number":3053,"name":"3053 - GAMBETTA / JUSSERAND (FAR)","address":"Angle cours Gambetta","latitude":45.751123,"longitude":4.855604},{"number":2024,"name":"2024 - RÉPUBLIQUE / MAUPIN","address":"Entre Herriot et République","latitude":45.758733,"longitude":4.834136},{"number":1035,"name":"1035 - QUAI LASSAGNE","address":"3 QUAI ANDRE LASSAGNE","latitude":45.772191,"longitude":4.837917},{"number":2014,"name":"2014 - JACOBINS","address":"3 RUE JEAN DE TOURNES","latitude":45.760762,"longitude":4.834305},{"number":6037,"name":"6037 - CITÉ INTERNATIONALE / INTERPOL","address":"Allée A. Lignon","latitude":45.782287,"longitude":4.849378},{"number":10083,"name":"10083 - CHATEAU GAILLARD / BIENVENUS","address":"2 RUE DES BIENVENUS","latitude":45.777873,"longitude":4.884238},{"number":2017,"name":"2017 - RÉPUBLIQUE / FERRANDIÈRE (FAR)","address":"Rue de la République","latitude":45.762184,"longitude":4.836023},{"number":8057,"name":"8057 - VIENNE / MONTAGNY","address":"184 ROUTE DE VIENNE","latitude":45.732483,"longitude":4.853406},{"number":3051,"name":"3051 - PLACE HENRI","address":"Angle rue Docteur Long/av. Lacassagne","latitude":45.748193,"longitude":4.880641},{"number":7014,"name":"7014 - MARSEILLE / FÉLISSENT","address":"Rue Felissent, angle rue de Marseille","latitude":45.752989,"longitude":4.841417},{"number":8007,"name":"8007 - FRÈRES LUMIÈRE","address":"Angle rue Villon","latitude":45.745018,"longitude":4.866424},{"number":9006,"name":"9006 - THÉÂTRE NOUVELLE GÉNÉRATION","address":"Rue Tissot / angle rue de Bourgogne","latitude":45.777287,"longitude":4.803297},{"number":10032,"name":"10032 - PRIMAT / DECORPS","address":"Rue Antoine Primat/Angle rue Decorps","latitude":45.757173,"longitude":4.89998},{"number":8021,"name":"8021 - PAUL SANTY","address":"Place Général André - Face au 126 avenue Paul Santy","latitude":45.728542,"longitude":4.877279},{"number":2001,"name":"2001 - BELLECOUR / RÉPUBLIQUE (FAR)","address":"Angle République / rue de la Barre","latitude":45.758,"longitude":4.834594},{"number":2028,"name":"2028- SAINTE-BLANDINE","address":"Face station tram Ste Blandine","latitude":45.744438,"longitude":4.822152},{"number":2006,"name":"2006 - PLACE DE L'HIPPODROME","address":"Angle cours Charlemagne","latitude":45.745528,"longitude":4.82359},{"number":3021,"name":"3021 - PLACE DE LA FERRANDIÈRE","address":"Intersection Ferrandière/Jasseron","latitude":45.759488,"longitude":4.869346},{"number":8059,"name":"8059 - LAENNEC / PINEL","address":"173 BVD PINEL (BRON)","latitude":45.735375,"longitude":4.88954},{"number":1003,"name":"1003 - PLACE SATHONAY","address":"6 PLACE SATHONAY","latitude":45.769289,"longitude":4.830127},{"number":2009,"name":"2009 - CONFLUENCE DOCKS","address":"Sur l'esplanade entre la rue Hrant Dink et le 40 quai Rambaud","latitude":45.739652,"longitude":4.814984},{"number":2011,"name":"2011 - SALA / RUE DU PLAT","address":"Face à la faculté catholique","latitude":45.756813,"longitude":4.828342},{"number":1001,"name":"1001 - TERREAUX / TERME","address":"Angle rue d'Algérie","latitude":45.767736,"longitude":4.832114},{"number":1016,"name":"1016 - PÊCHERIE","address":"Rue de la Platière - Angle quai de la Pêcherie","latitude":45.765944,"longitude":4.831089},{"number":7056,"name":"7056 - PLACE RASPAIL (FAR)","address":"4 PLACE RASPAIL","latitude":45.755783,"longitude":4.840745},{"number":10103,"name":"10103 - DOUA / RUE DES SPORTS","address":"103 ave des Arts / rue des Sports","latitude":45.784526,"longitude":4.877482},{"number":10080,"name":"10080 - VAILLANT / PERRONCEL","address":"96 RUE ALEXIS PERRONCEL (VILLEURBANNE)","latitude":45.775409,"longitude":4.880261},{"number":10074,"name":"10074 - ZOLA / PASSAGE REY","address":"Cours E. Zola / Angle passage Rey","latitude":45.770099,"longitude":4.876728},{"number":8015,"name":"8015 - BOULEVARD JEAN XXIII","address":"RUE MARYSE BASTIE","latitude":45.740324,"longitude":4.874192},{"number":3089,"name":"3089 - TRARIEUX / LACASSAGNE","address":"221 AV. LACASSAGNE","latitude":45.745304,"longitude":4.888964},{"number":5055,"name":"5055 - BUYER / APOLLINAIRE","address":"101 AV. BARTHELEMY BUYER","latitude":45.762013,"longitude":4.802751},{"number":10048,"name":"10048 - PLACE MARENGO","address":"52 AV. MARC SANGNIER (VILLEURBANNE)","latitude":45.759176,"longitude":4.875958},{"number":10115,"name":"10115 - PLACE D'ESPAGNE / STADE KRUGER","address":"173 AV. PAUL KRUGER (VILLEURBANNE)","latitude":45.754181,"longitude":4.90528},{"number":10063,"name":"10063 - PERRIN / JEAN JAURÈS","address":"7 PLACE JULES GRANDCLEMENT (VILLEURBANNE)","latitude":45.758399,"longitude":4.885601},{"number":3085,"name":"3085 - SACRE COEUR","address":"66 RUE ANTOINE CHARIAL","latitude":45.757864,"longitude":4.868337},{"number":3024,"name":"3024 - ROCKEFELLER / ESQUIROL","address":"Intersection Rockefeller / Esquirol","latitude":45.741336,"longitude":4.885538},{"number":2041,"name":"2041 - SALA / CHARITE","address":"44 RUE SALA","latitude":45.754468,"longitude":4.833041},{"number":10086,"name":"10086 - ANATOLE FRANCE","address":"Angle Rue de Préssensé / Flachet","latitude":45.769837,"longitude":4.889629},{"number":7011,"name":"7011 - BERTHELOT / GARIBALDI","address":"Rue Garibaldi - Angle avenue Berthelot","latitude":45.743756,"longitude":4.847406},{"number":10117,"name":"10117 - LA PERALLIÈRE","address":"166 RUE DU QUATRE AOUT (VILLEURBANNE)","latitude":45.764567,"longitude":4.892349},{"number":9041,"name":"9041 - CARRET / SÉDALLIAN","address":"10 QUAI PAUL SEDAILLAN","latitude":45.792478,"longitude":4.820567},{"number":9043,"name":"9043 - MARIETTON OUEST","address":"","latitude":45.776087,"longitude":4.799725},{"number":3091,"name":"3091 - HOPITAL NEUROLOGIQUE","address":"54 BVD PINEL","latitude":45.748286,"longitude":4.896975},{"number":1024,"name":"1024 - ROUVILLE","address":"PLACE ROUVILLE","latitude":45.769684,"longitude":4.824607},{"number":10035,"name":"10035 - BOIRON GRANGÉ","address":"43 RUE PIERRE BARATIN (VILLEURBANNE)","latitude":45.763139,"longitude":4.900492},{"number":5005,"name":"5005 - SAINT PAUL","address":"Près de la gare de St Paul","latitude":45.766278,"longitude":4.827425},{"number":4041,"name":"4041 - BOUSSANGES / AUSTERLITZ","address":"17 RUE D'AUSTERLITZ","latitude":45.775435,"longitude":4.83512},{"number":6043,"name":"6043 - CITÉ INTERNATIONALE - CINÉMA","address":"80 QUAI CHARLES DE GAULLE","latitude":45.784698,"longitude":4.851896},{"number":3088,"name":"3088 - PLACE GUICHARD","address":"65 RUE MAZENOD","latitude":45.75882,"longitude":4.846453},{"number":10059,"name":"10059 - ANATOLE FRANCE / ZOLA","address":"Rue Anatole France","latitude":45.76884,"longitude":4.884276},{"number":8040,"name":"8040 - AMBROISE PARÉ","address":"Face au 54 Boulevard Ambroise Paré","latitude":45.736289,"longitude":4.883667},{"number":9040,"name":"9040 - PLACE RHODIACETA","address":"1 PLACE DE LA RHODIACETA","latitude":45.770991,"longitude":4.807578},{"number":6016,"name":"6016 - VIABERT / THIERS","address":"Angle avenue Thiers","latitude":45.766002,"longitude":4.86218},{"number":6008,"name":"6008 - PLACE JULES FERRY","address":"17 PLACE JULES FERRY","latitude":45.7684,"longitude":4.858972},{"number":5004,"name":"5004 - ST JEAN (FAR)","address":"Entre la cathédrale et le funiculaire","latitude":45.760468,"longitude":4.826548},{"number":10030,"name":"10030 - GREUZE","address":"126 RUE DU 8 MAI 1945 (VILLEURBANNE)","latitude":45.773845,"longitude":4.893851},{"number":10118,"name":"10118 - VOYANT / CHAMBORD","address":"99 RUE PIERRE VOYANT (VILLEURBANNE)","latitude":45.767194,"longitude":4.900597},{"number":1022,"name":"1022 - PLACE TOLOZAN (FAR)","address":"Place Tolozan - Angle nord-est de la place","latitude":45.769508,"longitude":4.837495},{"number":3031,"name":"3031 - CORNEILLE / SERVIENT","address":"Angle rue Servient","latitude":45.759906,"longitude":4.844511},{"number":10001,"name":"10001 - IUT / FEYSSINE","address":"rue de la Technologie","latitude":45.785632,"longitude":4.882366},{"number":3043,"name":"3043 - PLACE ROUGET DE L'ISLE","address":"Avenue Lacassagne","latitude":45.753975,"longitude":4.867336},{"number":6001,"name":"6001 - GARE DES BROTTEAUX","address":"Place Jules Ferry angle rue Général Brosset face à la gare des Brotteaux","latitude":45.766893,"longitude":4.858922},{"number":10114,"name":"10114 - BEL AIR / LES BROSSES","address":"2 AV. DU BEL AIR (VILLEURBANNE)","latitude":45.757931,"longitude":4.910776},{"number":10071,"name":"10071 - LYCÉE MARIE CURIE","address":"64 BVD EUGENE REGUILLON (VILLEURBANNE)","latitude":45.761597,"longitude":4.896386},{"number":10038,"name":"10038 - CONDORCET","address":"Bvd 11 Nov./prox. arret tram Condorcet","latitude":45.779062,"longitude":4.866874},{"number":10060,"name":"10060 - SAINT EXUPÉRY","address":"Avenue Antoine Saint Exupery","latitude":45.758805,"longitude":4.87889},{"number":4005,"name":"4005 - PLACE BERTONE","address":"Rue du Chariot d'Or","latitude":45.77762,"longitude":4.83453},{"number":7031,"name":"7031 - JAURÈS / GERLAND","address":"42 Rue de Gerland 69007 Lyon","latitude":45.739827,"longitude":4.840308},{"number":9050,"name":"9050 - ALLEE DE L'EUROPE","address":"AVENUE DU PLATEAU","latitude":45.783698,"longitude":4.794485},{"number":10087,"name":"10087 - BARATIN","address":"Face au 115 rue Pierre Baratin","latitude":45.760603,"longitude":4.900702},{"number":4026,"name":"04026 - BIRMINGHAM","address":"Avenue Birmingham, sortie tunnel mode doux côté Saöne - 69000 Lyon","latitude":45.774574,"longitude":4.813656},{"number":10041,"name":"10041 - KIMMERLING","address":"1 PLACE KIMMERLING (VILLEURBANNE)","latitude":45.752923,"longitude":4.898891},{"number":2020,"name":"2020 - MUSEE DES CONFLUENCES","address":"Parvis du musée des confluences","latitude":45.733388,"longitude":4.818954},{"number":4001,"name":"4001 - CONSERVATOIRE BIS","address":"","latitude":45.770392,"longitude":4.814254},{"number":10043,"name":"10043 - SALENGRO / FEYSSINE","address":"RUE DE LA FEYSSINE (VILLEURBANNE)","latitude":45.782994,"longitude":4.890614},{"number":5007,"name":"5007 - PLACE DE TRION","address":"Place de Trion","latitude":45.757916,"longitude":4.81317},{"number":3015,"name":"3015 - SERVIENT / GARIBALDI","address":"Angle rue Garibaldi","latitude":45.760779,"longitude":4.85276},{"number":8037,"name":"8037 - CAZENEUVE","address":"Rue Paul Cazeneuve - Angle du boulevard des Etats-Unis","latitude":45.734027,"longitude":4.862906},{"number":7018,"name":"7018 - LYCEE LOUISE LABE","address":"2 Rue Crépet 69007 Lyon","latitude":45.740279,"longitude":4.832061},{"number":2015,"name":"2015 - PLACE DE LA RÉPUBLIQUE (FAR)","address":"Côté est de la place","latitude":45.760698,"longitude":4.836279},{"number":10056,"name":"10056 - 11 NOVEMBRE / GASTON BERGER","address":"Avenue du 11 Nov./angle av Gaston Berger","latitude":45.779066,"longitude":4.871581},{"number":3029,"name":"3029 - PLACE ARISTIDE BRIAND","address":"Angle Gambetta","latitude":45.752967,"longitude":4.850271},{"number":10061,"name":"10061 - RÉPUBLIQUE","address":"Cours Emile Zola/Angle cours de la République","latitude":45.77081,"longitude":4.872844},{"number":4003,"name":"4003- PLACE COMMANDANT  ARNAUD","address":"Angle rue de Belfort","latitude":45.779731,"longitude":4.834708},{"number":7064,"name":"7064 - CROUS","address":"96 RUE CHEVREUL","latitude":45.74541,"longitude":4.847843},{"number":4017,"name":"4017 - PLACE DES TAPIS","address":"Angle Bvd de la Croix-Rousse","latitude":45.776002,"longitude":4.829628},{"number":3082,"name":"3082 - PLACE BAHADOURIAN","address":"160 RUE PIERRE CORNEILLE","latitude":45.757672,"longitude":4.845111},{"number":10046,"name":"10046 - CHARMETTES/ZOLA","address":"Rue des Charmettes/Angle Cours Emile Zola","latitude":45.770705,"longitude":4.867201},{"number":7046,"name":"7046 - PLACE DE L'ECOLE","address":"Angle rue de St Cloud","latitude":45.730083,"longitude":4.82781},{"number":5050,"name":"5050 - THEATRE ROMAIN","address":"1 RUE DE L'ANTIQUAILLE","latitude":45.758333,"longitude":4.821075},{"number":7002,"name":"7002 - UNIVERSITÉS LYON III / LYON II (FAR)","address":"Quai Claude Bernard","latitude":45.751404,"longitude":4.836395},{"number":3007,"name":"3007 - PLACE D'ARSONVAL (FAR)","address":"A côté du stand de fleurs","latitude":45.743396,"longitude":4.87897},{"number":6007,"name":"6007 - MASSÉNA","address":"Angle Cours Vitton","latitude":45.769654,"longitude":4.852366},{"number":9051,"name":"9051 - ANDREI SAKHAROV","address":"373 AV. ANDREI SAKHAROV","latitude":45.786546,"longitude":4.797107},{"number":7012,"name":"7012 - PLACE DES PAVILLONS","address":"Place des Pavillons - Devant la bibliothèque","latitude":45.7295,"longitude":4.829697},{"number":7049,"name":"7049 - CITÉ SCOLAIRE INTERNATIONALE","address":"27–33 Rue Alexander Fleming 69007 Lyon","latitude":45.727951,"longitude":4.823563},{"number":6005,"name":"6005 - PLACE EDGAR QUINET","address":"Devant le lycée","latitude":45.765811,"longitude":4.844767},{"number":3002,"name":"3002 - PART-DIEU / GARE SNCF (FAR)","address":"1 PLACE CHARLES BERAUDIER","latitude":45.760139,"longitude":4.85873},{"number":10102,"name":"10102 - DOUA / G. BERGER","address":"ave G. Berger","latitude":45.781008,"longitude":4.871219},{"number":6023,"name":"6023 - QUAI SARRAIL","address":"Niveau rue de Sèze","latitude":45.766821,"longitude":4.841095},{"number":7034,"name":"7034 - PISCINE DU RHÔNE","address":"Sur le quai devant l'entrée de la piscine","latitude":45.753705,"longitude":4.838283},{"number":1020,"name":"1020 - TERREAUX / CHENAVARD","address":"Rue Chenavard - Côté place des Terreaux","latitude":45.766763,"longitude":4.832942},{"number":10064,"name":"10064 - 4 AOÛT 1789","address":"Angle Rue Rollet/Blanqui","latitude":45.764812,"longitude":4.884311},{"number":7010,"name":"7010 - CENTRE BERTHELOT","address":"Rue Pasteur - Angle avenue Berthelot","latitude":45.747358,"longitude":4.836009},{"number":10101,"name":"10101 - EINSTEIN / BOULEVARD DU 11 NOVEMBRE","address":"43 BVD DU 11 NOVEMBRE 1918 (VILLEURBANNE)","latitude":45.779429,"longitude":4.873992},{"number":11001,"name":"11001 - GARE DE CUIRE","address":"2 RUE CLAUDE BERNARD (CALUIRE ET CUIRE)","latitude":45.785796,"longitude":4.833733},{"number":7022,"name":"7022 - JAURÈS / LAGRANGE","address":"16 Impasse du Pré Gaudry 69007 Lyon","latitude":45.743975,"longitude":4.841463},{"number":3102,"name":"3102 - DR LONG / AUBEPINS","address":"135 COURS DOCTEUR LONG","latitude":45.75254,"longitude":4.894272},{"number":10088,"name":"10088 - 4 AOÛT 1789 / PRESSENSÉ","address":"COURS EMILE ZOLA (VILLEURBANNE)","latitude":45.766219,"longitude":4.89788},{"number":7020,"name":"7020 - PARC DE GERLAND","address":"Allée Pierre de Coubertin","latitude":45.724352,"longitude":4.826821},{"number":10031,"name":"10031 - CROIX LUIZET","address":"sur la place Croix Luizet","latitude":45.780679,"longitude":4.88356},{"number":5054,"name":"5054 - CHAMPVERT","address":"192 AV. BARTHELEMY BUYER","latitude":45.763906,"longitude":4.792643},{"number":4011,"name":"4011 - PLACE JEAN AMBRE","address":"Place Jean Ambre","latitude":45.781574,"longitude":4.832866},{"number":1002,"name":"1002 - OPÉRA (FAR)","address":"Angle rue Serlin - Angle place de la comédie","latitude":45.767524,"longitude":4.836306},{"number":2042,"name":"2042 - JOFFRE / VAUBECOUR","address":"43 RUE VAUBECOUR","latitude":45.751873,"longitude":4.824763},{"number":9032,"name":"9032 - PLACE DU PORT MOUTON","address":"Quai Arloing, Côté Saône","latitude":45.773815,"longitude":4.809566},{"number":11002,"name":"11002 - SAINT CLAIR","address":"49 COURS ARISTIDE BRIAND (CALUIRE)","latitude":45.785465,"longitude":4.847838},{"number":3003,"name":"3003 - PART-DIEU / DERUELLE (FAR)","address":"Face rue Massena, entrée centre commercial","latitude":45.762974,"longitude":4.855071},{"number":9002,"name":"9002 - MAIRIE DU 9°","address":"Prox. métro Valmy","latitude":45.774241,"longitude":4.805676},{"number":10039,"name":"10039 - BOUVIER","address":"Rue Professeur Bouvier/Angle rue du 8 mai 1945","latitude":45.779487,"longitude":4.891692},{"number":6006,"name":"6006 - BOULEVARD DES BELGES","address":"Boulevard des Belges - Angle rue Duquesne","latitude":45.773304,"longitude":4.852001},{"number":10002,"name":"10002 - INSA (FAR)","address":"Avenue Albert Einstein au niveau du virage","latitude":45.782222,"longitude":4.876951},{"number":7016,"name":"7016 - PLACE SAINT LOUIS","address":"Rue de la Madeleine - Angle rue St Lazarre","latitude":45.748925,"longitude":4.847714},{"number":5008,"name":"5008 - SAINTE IRÉNÉE","address":"Place Sainte Irénée","latitude":45.754978,"longitude":4.812427},{"number":10054,"name":"10054 - STALINGRAD / MELIÈS","address":"RUE GEORGES MELIES (VILLEURBANNE)","latitude":45.776715,"longitude":4.859573},{"number":1021,"name":"1021 - TERREAUX / BEAUX ARTS","address":"Rue Herriot - Devant Musée des Beaux Arts","latitude":45.766832,"longitude":4.834267},{"number":2007,"name":"2007 - PATINOIRE CHARLEMAGNE","address":"Angle rue Casimir Périer","latitude":45.742617,"longitude":4.820464},{"number":8004,"name":"8004 - MAIRIE DU 8ÈME","address":"Devant la mairie du 8e","latitude":45.735158,"longitude":4.872803},{"number":3044,"name":"3044 - QUAI AUGAGNEUR (FAR)","address":"Entre rue de Bonnel et rue Rabelais","latitude":45.762023,"longitude":4.841053},{"number":3001,"name":"3001 - PART-DIEU / VIVIER MERLE (FAR)","address":"Derrière la station de tram","latitude":45.76027,"longitude":4.858454},{"number":10025,"name":"10025 - TOTEM","address":"","latitude":45.763652,"longitude":4.873158},{"number":8034,"name":"8034 - BERTHELOT / VILLON","address":"Angle avenue Berthelot","latitude":45.738301,"longitude":4.862727},{"number":3084,"name":"3084 - DESAIX","address":"143 RUE PAUL BERT","latitude":45.757268,"longitude":4.855193},{"number":5026,"name":"5026 - RUE DE LA BALEINE","address":"Angle quai Romain Rolland","latitude":45.763383,"longitude":4.829024},{"number":3038,"name":"3038 - VIVIER MERLE / PAUL BERT","address":"Devant le bâtiment de la CAFAL","latitude":45.757415,"longitude":4.858911},{"number":3079,"name":"3079 - PLACE LOUISE","address":"4 PLACE LOUISE","latitude":45.75118,"longitude":4.884795},{"number":2025,"name":"2025 - MERCIÈRE / FERRANDIÈRE","address":"Entre rue de Brest et rue Mercière","latitude":45.762054,"longitude":4.833194},{"number":7004,"name":"7004 - MAIRIE DU 7ÈME (FAR)","address":"Place Jean Macé - Face à la mairie","latitude":45.74656,"longitude":4.842265},{"number":5031,"name":"5031- MENIVAL/J.CURIE","address":"49 RUE JOLIOT CURIE","latitude":45.754654,"longitude":4.78821},{"number":2039,"name":"2039 - CHARITÉ / RÉCAMMIER","address":"86 RUE DE LA CHARITE","latitude":45.749257,"longitude":4.82984},{"number":5041,"name":"5041 - L'HOMME DE LA ROCHE","address":"55 QUAI PIERRE SCIZE","latitude":45.766537,"longitude":4.819936},{"number":5009,"name":"5009 - PLACE FOUSSERET","address":"angle quai de Bondy","latitude":45.764695,"longitude":4.828969},{"number":8030,"name":"8030 - LAËNNEC","address":"Angle rue Nungesser et Coli","latitude":45.741425,"longitude":4.879733},{"number":5036,"name":"5036 - LA SALETTE","address":"104 RUE DU COMMANDANT CHARCOT","latitude":45.749627,"longitude":4.795546},{"number":8003,"name":"8003 - CLAUDE BERNARD LYON I","address":"Devant entrée de la fac","latitude":45.738135,"longitude":4.886885},{"number":3100,"name":"3100 - SISLEY / DAUPHINE","address":"61 RUE DU DAUPHINE","latitude":45.752779,"longitude":4.868748},{"number":10027,"name":"10027 - MAIRIE DE VILLEURBANNE","address":"Avenue Aristide Briand, en face de la mairie","latitude":45.766861,"longitude":4.880059},{"number":1012,"name":"1012 - AMPÈRE / BOURSE","address":"Rue de la Bourse - Long du Collège-Lycée Ampère","latitude":45.765789,"longitude":4.836906},{"number":10036,"name":"10036 - STALINGRAD","address":"Boulevard Stalingrad/angle rue Charlie Chaplin","latitude":45.77435,"longitude":4.859157},{"number":2030,"name":"2030 - RÉPUBLIQUE / POULAILLERIE (FAR)","address":"Angle Poulaillerie / République","latitude":45.764079,"longitude":4.835554},{"number":8051,"name":"8051 - HÔPITAL ST JEAN DE DIEU","address":"303 ROUTE DE VIENNE (VENISSIEUX)","latitude":45.724172,"longitude":4.854165},{"number":7057,"name":"7057 - JAURES / BOLLIER","address":"217b–221 Avenue Jean Jaurès 69007 Lyon","latitude":45.734712,"longitude":4.835486},{"number":7052,"name":"7052 - PARC BLANDAN","address":"Rue de l'Epargne","latitude":45.745939,"longitude":4.851214},{"number":7001,"name":"7001 - PLACE GABRIEL PÉRI (FAR)","address":"Place Gabriel Péri","latitude":45.754875,"longitude":4.843627},{"number":6036,"name":"6036 - MUSÉE D'ART CONTEMPORAIN (FAR)","address":"Allée A. Lignon","latitude":45.783885,"longitude":4.852156},{"number":7005,"name":"7005 - DEBOURG","address":"Avenue Debourg - Angle avenue Jean Jaurès","latitude":45.73182,"longitude":4.833996},{"number":8052,"name":"8052 - CLINIQUE MONPLAISIR","address":"2 AV. DES FRERES LUMIERE","latitude":45.747032,"longitude":4.859612},{"number":6011,"name":"6011- MAIRIE DU 6ÈME","address":"Angle rue Boileau","latitude":45.768395,"longitude":4.849402},{"number":7061,"name":"7061 - JAURES / UNIVERSITE","address":"64 AV. JEAN JAURES","latitude":45.748545,"longitude":4.843249},{"number":10013,"name":"10013 - CUSSET","address":"103 RUE PIERRE VOYANT (VILLEURBANNE)","latitude":45.764961,"longitude":4.901018},{"number":2005,"name":"2005 - CONFLUENCE HÔTEL DE RÉGION","address":"101 cours Charlemagne Lyon 2 direction centre ville. Devant l'hôtel de Région","latitude":45.740675,"longitude":4.819284},{"number":1032,"name":"1032 - PIZAY (FAR)","address":"17 RUE PIZAY","latitude":45.767165,"longitude":4.836334},{"number":5030,"name":"5030 - CHARCOT / RÉSIDENCE UNIVERSITAIRE","address":"Angle rue du fort Ste Irénée / Charcot","latitude":45.755054,"longitude":4.807811},{"number":8039,"name":"8039 - PIERRE DELORE","address":"97 ROUTE DE VIENNE","latitude":45.738617,"longitude":4.852412},{"number":7062,"name":"7062 - GARIBALDI / DOMER","address":"51 RUE DOMER","latitude":45.747735,"longitude":4.85162},{"number":2002,"name":"2002 - BELLECOUR / ST EXUPÉRY","address":"Côté rue Lintier","latitude":45.758149,"longitude":4.830428},{"number":3087,"name":"3087 - PART-DIEU / GARIBALDI","address":"4 BVD EUGENE DERUELLE","latitude":45.762768,"longitude":4.852563},{"number":9004,"name":"9004 - GARE DE VAISE","address":"Face entrée de la gare","latitude":45.779786,"longitude":4.804666},{"number":8002,"name":"8002- PLACE AMBROISE COURTOIS","address":"Face au cours Albert Thomas","latitude":45.745296,"longitude":4.871604},{"number":10007,"name":"10007 - PIATON / CONDORCET","address":"Av Piaton / angle Condorcet","latitude":45.774204,"longitude":4.867512},{"number":9033,"name":"9033 - GORGE DE LOUP","address":"49 RUE SGT BERTHET","latitude":45.767484,"longitude":4.805626},{"number":5001,"name":"5001 - PLACE VARILLON (FUNICULAIRE ST JUST)","address":"Devant le n°63 rue de Trion","latitude":45.757319,"longitude":4.815064},{"number":3018,"name":"3018 - CRÉQUI / VOLTAIRE","address":"Angle rue Paul Bert","latitude":45.756596,"longitude":4.848442}]